[
  [
    0.5690004825592041,
    "$GPRMC,002015.00,A,3733.70937,N,12656.07671,E,0.833,,230523,,,A*74\r\n"
  ],
  [
    0.569366455078125,
    "$GPVTG,,T,,M,0.833,N,1.543,K,A*28\r\n"
  ],
  [
    0.5699586868286133,
    "$GPGGA,002015.00,3733.70937,N,12656.07671,E,1,05,2.57,45.9,M,18.4,M,,*65\r\n"
  ],
  [
    0.5704023838043213,
    "$GPGSA,A,3,08,07,21,30,09,,,,,,,,4.19,2.57,3.30*08\r\n"
  ],
  [
    0.5708956718444824,
    "$GPGSV,4,1,14,01,27,187,,02,61,084,,04,02,207,,07,54,288,25*7A\r\n"
  ],
  [
    0.5713777542114258,
    "$GPGSV,4,2,14,08,72,005,24,09,08,236,17,10,09,074,,14,03,296,*74\r\n"
  ],
  [
    0.5718221664428711,
    "$GPGSV,4,3,14,16,30,096,,21,55,170,14,23,03,042,,26,03,112,*71\r\n"
  ],
  [
    0.5721163749694824,
    "$GPGSV,4,4,14,27,41,048,,30,27,312,19*7E\r\n"
  ],
  [
    0.5724921226501465,
    "$GPGLL,3733.70937,N,12656.07671,E,002015.00,A,A*60\r\n"
  ],
  [
    0.7168159484863281,
    "$GPTXT,01,01,02,u-blox ag - www.u-blox.com*50\r\n"
  ],
  [
    0.7173092365264893,
    "$GPTXT,01,01,02,HW  UBX-G70xx   00070000 *77\r\n"
  ],
  [
    0.7178137302398682,
    "$GPTXT,01,01,02,ROM CORE 1.00 (59842) Jun 27 2012 17:43:52*59\r\n"
  ],
  [
    0.7180516719818115,
    "$GPTXT,01,01,02,PROTVER 14.00*1E\r\n"
  ],
  [
    0.718358039855957,
    "$GPTXT,01,01,02,ANTSUPERV=AC SD PDoS SR*20\r\n"
  ],
  [
    0.7185811996459961,
    "$GPTXT,01,01,02,ANTSTATUS=OK*3B\r\n"
  ],
  [
    0.7190442085266113,
    "$GPTXT,01,01,02,LLC FFFFFFFF-FFFFFFED-FFFFFFFF-FFFFFFFF-FFFFFFFD*2D\r\n"
  ],
  [
    1.5843760967254639,
    "$GPRMC,002016.00,A,3733.70951,N,12656.07696,E,0.750,,230523,,,A*74\r\n"
  ],
  [
    1.584681749343872,
    "$GPVTG,,T,,M,0.750,N,1.390,K,A*2A\r\n"
  ],
  [
    1.5852787494659424,
    "$GPGGA,002016.00,3733.70951,N,12656.07696,E,1,05,2.57,45.7,M,18.4,M,,*61\r\n"
  ],
  [
    1.5856709480285645,
    "$GPGSA,A,3,08,07,21,30,09,,,,,,,,4.19,2.57,3.30*08\r\n"
  ],
  [
    1.5860874652862549,
    "$GPGSV,4,1,14,01,27,187,,02,61,084,,04,02,207,,07,54,288,26*79\r\n"
  ],
  [
    1.5865232944488525,
    "$GPGSV,4,2,14,08,72,005,25,09,08,236,17,10,09,074,,14,03,296,*75\r\n"
  ],
  [
    1.5869395732879639,
    "$GPGSV,4,3,14,16,30,096,,21,55,170,15,23,03,042,,26,03,112,*70\r\n"
  ],
  [
    1.5872228145599365,
    "$GPGSV,4,4,14,27,41,048,,30,27,312,20*74\r\n"
  ],
  [
    1.5875651836395264,
    "$GPGLL,3733.70951,N,12656.07696,E,002016.00,A,A*6A\r\n"
  ],
  [
    2.5751991271972656,
    "$GPRMC,002017.00,A,3733.71022,N,12656.07718,E,1.261,,230523,,,A*78\r\n"
  ],
  [
    2.575510025024414,
    "$GPVTG,,T,,M,1.261,N,2.336,K,A*23\r\n"
  ],
  [
    2.5760979652404785,
    "$GPGGA,002017.00,3733.71022,N,12656.07718,E,1,05,2.57,45.4,M,18.4,M,,*68\r\n"
  ],
  [
    2.576526165008545,
    "$GPGSA,A,3,08,07,21,30,09,,,,,,,,4.19,2.57,3.30*08\r\n"
  ],
  [
    2.5769600868225098,
    "$GPGSV,4,1,14,01,27,187,,02,61,084,,04,02,207,,07,54,288,25*7A\r\n"
  ],
  [
    2.5773966312408447,
    "$GPGSV,4,2,14,08,72,005,25,09,08,236,15,10,09,074,,14,03,296,*77\r\n"
  ],
  [
    2.5778133869171143,
    "$GPGSV,4,3,14,16,30,096,,21,55,170,16,23,03,042,,26,03,112,*73\r\n"
  ],
  [
    2.5780892372131348,
    "$GPGSV,4,4,14,27,41,048,,30,27,312,20*74\r\n"
  ],
  [
    2.5784363746643066,
    "$GPGLL,3733.71022,N,12656.07718,E,002017.00,A,A*60\r\n"
  ],
  [
    3.575866937637329,
    "$GPRMC,002018.00,A,3733.71047,N,12656.07644,E,1.180,,230523,,,A*70\r\n"
  ],
  [
    3.5761990547180176,
    "$GPVTG,,T,,M,1.180,N,2.185,K,A*25\r\n"
  ],
  [
    3.576812982559204,
    "$GPGGA,002018.00,3733.71047,N,12656.07644,E,1,05,2.57,44.6,M,18.4,M,,*6F\r\n"
  ],
  [
    3.57725191116333,
    "$GPGSA,A,3,08,07,21,30,09,,,,,,,,4.19,2.57,3.30*08\r\n"
  ],
  [
    3.577669858932495,
    "$GPGSV,4,1,14,01,27,187,,02,61,084,,04,02,207,,07,54,288,25*7A\r\n"
  ],
  [
    3.5780980587005615,
    "$GPGSV,4,2,14,08,72,005,24,09,08,236,14,10,09,074,,14,03,296,*77\r\n"
  ],
  [
    3.578521251678467,
    "$GPGSV,4,3,14,16,30,096,,21,55,170,16,23,03,042,,26,03,112,*73\r\n"
  ],
  [
    3.5787978172302246,
    "$GPGSV,4,4,14,27,41,048,,30,27,312,19*7E\r\n"
  ],
  [
    3.5791447162628174,
    "$GPGLL,3733.71047,N,12656.07644,E,002018.00,A,A*64\r\n"
  ],
  [
    4.574885368347168,
    "$GPRMC,002019.00,A,3733.71114,N,12656.07639,E,1.366,,230523,,,A*76\r\n"
  ],
  [
    4.575210332870483,
    "$GPVTG,,T,,M,1.366,N,2.529,K,A*2D\r\n"
  ],
  [
    4.575783014297485,
    "$GPGGA,002019.00,3733.71114,N,12656.07639,E,1,05,2.72,43.9,M,18.4,M,,*6C\r\n"
  ],
  [
    4.576228380203247,
    "$GPGSA,A,3,08,07,21,30,09,,,,,,,,4.32,2.72,3.36*00\r\n"
  ],
  [
    4.576661586761475,
    "$GPGSV,4,1,14,01,27,187,,02,61,084,,04,02,207,,07,54,288,25*7A\r\n"
  ],
  [
    4.577090740203857,
    "$GPGSV,4,2,14,08,72,005,24,09,08,236,13,10,09,074,,14,03,296,*70\r\n"
  ],
  [
    4.577516555786133,
    "$GPGSV,4,3,14,16,30,096,,21,55,170,15,23,03,042,,26,03,112,*70\r\n"
  ],
  [
    4.577795743942261,
    "$GPGSV,4,4,14,27,41,048,,30,27,312,20*74\r\n"
  ],
  [
    4.578150987625122,
    "$GPGLL,3733.71114,N,12656.07639,E,002019.00,A,A*68\r\n"
  ],
  [
    5.5762035846710205,
    "$GPRMC,002020.00,A,3733.71085,N,12656.07664,E,0.736,,230523,,,A*7D\r\n"
  ],
  [
    5.5765135288238525,
    "$GPVTG,,T,,M,0.736,N,1.364,K,A*21\r\n"
  ],
  [
    5.577102184295654,
    "$GPGGA,002020.00,3733.71085,N,12656.07664,E,1,04,2.94,43.8,M,18.4,M,,*6F\r\n"
  ],
  [
    5.577306032180786,
    "$GPGSA,A,3,08,07,21,30,,,,,,,,,4.94,2.94,3.96*07\r\n"
  ],
  [
    5.577450752258301,
    "$GPGSV,4,1,14,01,27,187,,02,61,084,,04,02,207,,07,54,288,25*7A\r\n"
  ],
  [
    5.577595472335815,
    "$GPGSV,4,2,14,08,72,005,25,09,08,236,,10,09,074,,14,03,296,*73\r\n"
  ],
  [
    5.5777387619018555,
    "$GPGSV,4,3,14,16,30,096,,21,55,170,26,23,03,042,,26,03,112,*70\r\n"
  ],
  [
    5.577834367752075,
    "$GPGSV,4,4,14,27,41,048,,30,27,312,23*77\r\n"
  ],
  [
    5.577953577041626,
    "$GPGLL,3733.71085,N,12656.07664,E,002020.00,A,A*63\r\n"
  ],
  [
    6.572786331176758,
    "$GPRMC,002021.00,A,3733.71055,N,12656.07679,E,0.446,,230523,,,A*79\r\n"
  ],
  [
    6.573086500167847,
    "$GPVTG,,T,,M,0.446,N,0.825,K,A*2A\r\n"
  ],
  [
    6.573680639266968,
    "$GPGGA,002021.00,3733.71055,N,12656.07679,E,1,04,2.94,43.9,M,18.4,M,,*6E\r\n"
  ],
  [
    6.574076414108276,
    "$GPGSA,A,3,08,07,21,30,,,,,,,,,4.94,2.94,3.96*07\r\n"
  ],
  [
    6.574506521224976,
    "$GPGSV,4,1,14,01,27,187,,02,61,084,,04,02,207,,07,54,288,27*78\r\n"
  ],
  [
    6.57494044303894,
    "$GPGSV,4,2,14,08,72,005,27,09,08,236,21,10,09,074,,14,03,296,*72\r\n"
  ],
  [
    6.57536506652832,
    "$GPGSV,4,3,14,16,30,096,,21,55,170,27,23,03,042,,26,03,112,*71\r\n"
  ],
  [
    6.575642824172974,
    "$GPGSV,4,4,14,27,41,048,,30,27,312,26*72\r\n"
  ],
  [
    6.575984716415405,
    "$GPGLL,3733.71055,N,12656.07679,E,002021.00,A,A*63\r\n"
  ],
  [
    7.5757410526275635,
    "$GPRMC,002022.00,A,3733.71039,N,12656.07700,E,0.155,,230523,,,A*78\r\n"
  ],
  [
    7.576040029525757,
    "$GPVTG,,T,,M,0.155,N,0.287,K,A*2F\r\n"
  ],
  [
    7.576644420623779,
    "$GPGGA,002022.00,3733.71039,N,12656.07700,E,1,04,2.94,43.6,M,18.4,M,,*67\r\n"
  ],
  [
    7.577031850814819,
    "$GPGSA,A,3,08,07,21,30,,,,,,,,,4.94,2.94,3.97*06\r\n"
  ],
  [
    7.577476263046265,
    "$GPGSV,4,1,14,01,27,187,,02,61,084,,04,02,207,,07,54,288,27*78\r\n"
  ],
  [
    7.57790994644165,
    "$GPGSV,4,2,14,08,72,005,27,09,08,236,18,10,09,074,,14,03,296,*78\r\n"
  ],
  [
    7.578321695327759,
    "$GPGSV,4,3,14,16,30,096,,21,55,170,23,23,03,042,,26,03,112,*75\r\n"
  ],
  [
    7.578590393066406,
    "$GPGSV,4,4,14,27,41,048,,30,27,312,24*70\r\n"
  ],
  [
    7.578919172286987,
    "$GPGLL,3733.71039,N,12656.07700,E,002022.00,A,A*65\r\n"
  ],
  [
    8.576398134231567,
    "$GPRMC,002023.00,A,3733.71028,N,12656.07696,E,0.131,,230523,,,A*75\r\n"
  ],
  [
    8.576701402664185,
    "$GPVTG,,T,,M,0.131,N,0.243,K,A*25\r\n"
  ],
  [
    8.577266454696655,
    "$GPGGA,002023.00,3733.71028,N,12656.07696,E,1,04,2.94,43.6,M,18.4,M,,*68\r\n"
  ],
  [
    8.577664375305176,
    "$GPGSA,A,3,08,07,21,30,,,,,,,,,4.94,2.94,3.97*06\r\n"
  ],
  [
    8.578114986419678,
    "$GPGSV,4,1,14,01,27,187,,02,61,084,,04,02,207,,07,54,288,26*79\r\n"
  ],
  [
    8.578553199768066,
    "$GPGSV,4,2,14,08,72,005,28,09,08,236,16,10,09,074,,14,03,296,*79\r\n"
  ],
  [
    8.578972578048706,
    "$GPGSV,4,3,14,16,30,096,,21,55,170,19,23,03,042,,26,03,112,*7C\r\n"
  ],
  [
    8.579256057739258,
    "$GPGSV,4,4,14,27,41,048,,30,27,312,25*71\r\n"
  ],
  [
    8.579598426818848,
    "$GPGLL,3733.71028,N,12656.07696,E,002023.00,A,A*6A\r\n"
  ],
  [
    9.576424837112427,
    "$GPRMC,002024.00,A,3733.71027,N,12656.07695,E,0.223,,230523,,,A*7E\r\n"
  ],
  [
    9.576722860336304,
    "$GPVTG,,T,,M,0.223,N,0.414,K,A*21\r\n"
  ],
  [
    9.57730221748352,
    "$GPGGA,002024.00,3733.71027,N,12656.07695,E,1,04,2.94,43.8,M,18.4,M,,*6D\r\n"
  ],
  [
    9.577701330184937,
    "$GPGSA,A,3,08,07,21,30,,,,,,,,,4.94,2.94,3.97*06\r\n"
  ],
  [
    9.578141212463379,
    "$GPGSV,4,1,14,01,27,187,,02,61,084,,04,02,207,,07,54,288,26*79\r\n"
  ],
  [
    9.578582286834717,
    "$GPGSV,4,2,14,08,72,005,25,09,08,236,16,10,09,074,,14,03,296,*74\r\n"
  ],
  [
    9.579005241394043,
    "$GPGSV,4,3,14,16,30,096,,21,55,170,17,23,03,042,,26,03,112,*72\r\n"
  ],
  [
    9.579293012619019,
    "$GPGSV,4,4,14,27,41,048,,30,27,312,23*77\r\n"
  ],
  [
    9.579638957977295,
    "$GPGLL,3733.71027,N,12656.07695,E,002024.00,A,A*61\r\n"
  ],
  [
    10.574787616729736,
    "$GPRMC,002025.00,A,3733.71104,N,12656.07721,E,0.367,,230523,,,A*70\r\n"
  ],
  [
    10.5751051902771,
    "$GPVTG,,T,,M,0.367,N,0.679,K,A*29\r\n"
  ],
  [
    10.575734615325928,
    "$GPGGA,002025.00,3733.71104,N,12656.07721,E,1,05,2.72,45.6,M,18.4,M,,*63\r\n"
  ],
  [
    10.576080322265625,
    "$GPGSA,A,3,08,07,21,30,09,,,,,,,,4.32,2.72,3.36*00\r\n"
  ],
  [
    10.576504707336426,
    "$GPGSV,4,1,14,01,27,187,,02,61,084,,04,02,207,,07,54,288,26*79\r\n"
  ],
  [
    10.576916933059692,
    "$GPGSV,4,2,14,08,72,005,26,09,08,236,16,10,09,074,,14,03,296,*77\r\n"
  ],
  [
    10.577327966690063,
    "$GPGSV,4,3,14,16,30,096,,21,55,170,18,23,03,042,,26,03,112,*7D\r\n"
  ],
  [
    10.577593803405762,
    "$GPGSV,4,4,14,27,41,048,,30,27,312,30*75\r\n"
  ],
  [
    10.577920198440552,
    "$GPGLL,3733.71104,N,12656.07721,E,002025.00,A,A*6E\r\n"
  ],
  [
    11.56748342514038,
    "$GPRMC,002026.00,A,3733.71202,N,12656.07712,E,0.760,,230523,,,A*75\r\n"
  ],
  [
    11.567791223526001,
    "$GPVTG,,T,,M,0.760,N,1.408,K,A*2F\r\n"
  ],
  [
    11.568381309509277,
    "$GPGGA,002026.00,3733.71202,N,12656.07712,E,1,05,2.72,47.8,M,18.4,M,,*69\r\n"
  ],
  [
    11.568825006484985,
    "$GPGSA,A,3,08,07,21,30,09,,,,,,,,4.32,2.72,3.35*03\r\n"
  ],
  [
    11.56926679611206,
    "$GPGSV,4,1,14,01,27,187,06,02,61,084,,04,02,207,,07,54,288,23*7A\r\n"
  ],
  [
    11.56968069076538,
    "$GPGSV,4,2,14,08,72,005,22,09,08,236,14,10,09,074,,14,03,296,*71\r\n"
  ],
  [
    11.570098876953125,
    "$GPGSV,4,3,14,16,30,096,,21,55,170,16,23,03,042,,26,03,112,*73\r\n"
  ],
  [
    11.570373296737671,
    "$GPGSV,4,4,14,27,41,048,,30,27,312,21*75\r\n"
  ],
  [
    11.570701837539673,
    "$GPGLL,3733.71202,N,12656.07712,E,002026.00,A,A*68\r\n"
  ],
  [
    12.568711280822754,
    "$GPRMC,002027.00,A,3733.71302,N,12656.07742,E,1.234,,230523,,,A*75\r\n"
  ],
  [
    12.56901478767395,
    "$GPVTG,,T,,M,1.234,N,2.285,K,A*2A\r\n"
  ],
  [
    12.56968641281128,
    "$GPGGA,002027.00,3733.71302,N,12656.07742,E,1,05,2.72,49.4,M,18.4,M,,*6E\r\n"
  ],
  [
    12.570121765136719,
    "$GPGSA,A,3,08,07,21,30,09,,,,,,,,4.32,2.72,3.35*03\r\n"
  ],
  [
    12.570615291595459,
    "$GPGSV,4,1,14,01,27,187,07,02,61,084,,04,02,207,,07,54,288,20*78\r\n"
  ],
  [
    12.571029424667358,
    "$GPGSV,4,2,14,08,72,005,20,09,08,236,12,10,09,074,,14,03,296,*75\r\n"
  ],
  [
    12.57145094871521,
    "$GPGSV,4,3,14,16,30,096,,21,55,170,12,23,03,042,,26,03,112,*77\r\n"
  ],
  [
    12.571725130081177,
    "$GPGSV,4,4,14,27,41,048,,30,27,312,19*7E\r\n"
  ],
  [
    12.572065114974976,
    "$GPGLL,3733.71302,N,12656.07742,E,002027.00,A,A*6D\r\n"
  ],
  [
    13.570255041122437,
    "$GPRMC,002028.00,A,3733.71335,N,12656.07781,E,0.950,,230523,,,A*79\r\n"
  ],
  [
    13.570564031600952,
    "$GPVTG,,T,,M,0.950,N,1.759,K,A*25\r\n"
  ],
  [
    13.571120023727417,
    "$GPGGA,002028.00,3733.71335,N,12656.07781,E,1,04,2.79,50.5,M,18.4,M,,*69\r\n"
  ],
  [
    13.571506261825562,
    "$GPGSA,A,3,08,07,30,09,,,,,,,,,4.36,2.79,3.36*0C\r\n"
  ],
  [
    13.57193636894226,
    "$GPGSV,4,1,14,01,27,187,08,02,61,084,,04,02,207,,07,54,288,17*73\r\n"
  ],
  [
    13.572378158569336,
    "$GPGSV,4,2,14,08,72,005,16,09,08,236,11,10,09,074,,14,03,296,*73\r\n"
  ],
  [
    13.572795152664185,
    "$GPGSV,4,3,14,16,30,096,,21,55,170,09,23,03,042,,26,03,112,*7D\r\n"
  ],
  [
    13.573073148727417,
    "$GPGSV,4,4,14,27,41,048,,30,27,312,18*7F\r\n"
  ],
  [
    13.573426008224487,
    "$GPGLL,3733.71335,N,12656.07781,E,002028.00,A,A*69\r\n"
  ],
  [
    14.559017181396484,
    "$GPRMC,002029.00,V,,,,,,,230523,,,N*71\r\n"
  ],
  [
    14.559233665466309,
    "$GPVTG,,,,,,,,,N*30\r\n"
  ],
  [
    14.5595703125,
    "$GPGGA,002029.00,,,,,0,00,99.99,,,,,,*6F\r\n"
  ],
  [
    14.559929847717285,
    "$GPGSA,A,1,,,,,,,,,,,,,99.99,99.99,99.99*30\r\n"
  ],
  [
    14.560420751571655,
    "$GPGSV,4,1,14,01,27,187,09,02,61,084,,04,02,207,,07,54,288,19*7C\r\n"
  ],
  [
    14.560852766036987,
    "$GPGSV,4,2,14,08,72,005,16,09,08,236,09,10,09,074,,14,03,296,*7A\r\n"
  ],
  [
    14.561281681060791,
    "$GPGSV,4,3,14,16,30,096,,21,55,170,08,23,03,042,,26,03,112,*7C\r\n"
  ],
  [
    14.561558723449707,
    "$GPGSV,4,4,14,27,41,048,,30,27,312,20*74\r\n"
  ],
  [
    14.56175184249878,
    "$GPGLL,,,,,002029.00,V,N*43\r\n"
  ],
  [
    15.57805871963501,
    "$GPRMC,002030.00,A,3733.71533,N,12656.07846,E,2.153,,230523,,,A*7D\r\n"
  ],
  [
    15.5783851146698,
    "$GPVTG,,T,,M,2.153,N,3.988,K,A*2C\r\n"
  ],
  [
    15.57894515991211,
    "$GPGGA,002030.00,3733.71533,N,12656.07846,E,1,04,2.79,52.5,M,18.4,M,,*66\r\n"
  ],
  [
    15.57933521270752,
    "$GPGSA,A,3,08,07,30,09,,,,,,,,,4.36,2.79,3.35*0F\r\n"
  ],
  [
    15.579769372940063,
    "$GPGSV,4,1,14,01,27,187,10,02,61,084,,04,02,207,,07,54,288,18*75\r\n"
  ],
  [
    15.580220460891724,
    "$GPGSV,4,2,14,08,72,005,15,09,08,236,10,10,09,074,,14,03,296,*71\r\n"
  ],
  [
    15.580648183822632,
    "$GPGSV,4,3,14,16,30,096,,21,55,170,08,23,03,042,,26,03,112,*7C\r\n"
  ],
  [
    15.580927610397339,
    "$GPGSV,4,4,14,27,41,048,,30,27,312,20*74\r\n"
  ],
  [
    15.58127474784851,
    "$GPGLL,3733.71533,N,12656.07846,E,002030.00,A,A*64\r\n"
  ],
  [
    16.56990146636963,
    "$GPRMC,002031.00,A,3733.71618,N,12656.07846,E,2.419,,230523,,,A*7D\r\n"
  ],
  [
    16.570231437683105,
    "$GPVTG,,T,,M,2.419,N,4.480,K,A*25\r\n"
  ],
  [
    16.570788860321045,
    "$GPGGA,002031.00,3733.71618,N,12656.07846,E,1,03,4.64,52.9,M,18.4,M,,*6C\r\n"
  ],
  [
    16.571170568466187,
    "$GPGSA,A,3,08,07,30,,,,,,,,,,7.40,4.64,5.77*0E\r\n"
  ],
  [
    16.571613550186157,
    "$GPGSV,4,1,14,01,27,187,09,02,61,084,13,04,02,207,,07,54,288,17*70\r\n"
  ],
  [
    16.572043657302856,
    "$GPGSV,4,2,14,08,72,005,16,09,08,236,10,10,09,074,,14,03,296,*72\r\n"
  ],
  [
    16.572471141815186,
    "$GPGSV,4,3,14,16,30,096,,21,55,170,08,23,03,042,,26,03,112,*7C\r\n"
  ],
  [
    16.572736501693726,
    "$GPGSV,4,4,14,27,41,048,,30,27,312,20*74\r\n"
  ],
  [
    16.573066234588623,
    "$GPGLL,3733.71618,N,12656.07846,E,002031.00,A,A*6F\r\n"
  ],
  [
    17.588032245635986,
    "$GPRMC,002032.00,A,3733.71667,N,12656.07889,E,2.351,,230523,,,A*7E\r\n"
  ],
  [
    17.588355779647827,
    "$GPVTG,,T,,M,2.351,N,4.354,K,A*20\r\n"
  ],
  [
    17.588897943496704,
    "$GPGGA,002032.00,3733.71667,N,12656.07889,E,1,03,3.41,52.9,M,18.4,M,,*64\r\n"
  ],
  [
    17.58928894996643,
    "$GPGSA,A,3,08,07,30,,,,,,,,,,5.59,3.41,4.43*02\r\n"
  ],
  [
    17.589714765548706,
    "$GPGSV,4,1,14,01,27,187,09,02,61,084,11,04,02,207,,07,54,288,17*72\r\n"
  ],
  [
    17.590126276016235,
    "$GPGSV,4,2,14,08,72,005,15,09,08,236,08,10,09,074,,14,03,296,*78\r\n"
  ],
  [
    17.590532779693604,
    "$GPGSV,4,3,14,16,30,096,,21,55,170,08,23,03,042,,26,03,112,*7C\r\n"
  ],
  [
    17.590797185897827,
    "$GPGSV,4,4,14,27,41,048,,30,27,312,20*74\r\n"
  ],
  [
    17.59111976623535,
    "$GPGLL,3733.71667,N,12656.07889,E,002032.00,A,A*67\r\n"
  ],
  [
    18.56287980079651,
    "$GPRMC,002033.00,A,3733.71602,N,12656.07857,E,1.339,,230523,,,A*72\r\n"
  ],
  [
    18.563172817230225,
    "$GPVTG,,T,,M,1.339,N,2.480,K,A*25\r\n"
  ],
  [
    18.563640117645264,
    "$GPGGA,002033.00,3733.71602,N,12656.07857,E,1,04,2.81,52.9,M,18.4,M,,*6F\r\n"
  ],
  [
    18.564029693603516,
    "$GPGSA,A,3,08,07,30,01,,,,,,,,,4.30,2.81,3.25*07\r\n"
  ],
  [
    18.564486503601074,
    "$GPGSV,4,1,14,01,27,187,13,02,61,084,09,04,02,207,,07,54,288,23*77\r\n"
  ],
  [
    18.564938068389893,
    "$GPGSV,4,2,14,08,72,005,17,09,08,236,08,10,09,074,,14,03,296,*7A\r\n"
  ],
  [
    18.565364599227905,
    "$GPGSV,4,3,14,16,30,096,,21,55,170,08,23,03,042,,26,03,112,*7C\r\n"
  ],
  [
    18.565641164779663,
    "$GPGSV,4,4,14,27,41,048,,30,27,312,22*76\r\n"
  ],
  [
    18.565985441207886,
    "$GPGLL,3733.71602,N,12656.07857,E,002033.00,A,A*66\r\n"
  ],
  [
    19.571542024612427,
    "$GPRMC,002034.00,A,3733.71603,N,12656.07801,E,1.028,,230523,,,A*74\r\n"
  ],
  [
    19.571864128112793,
    "$GPVTG,,T,,M,1.028,N,1.903,K,A*23\r\n"
  ],
  [
    19.572445154190063,
    "$GPGGA,002034.00,3733.71603,N,12656.07801,E,1,04,2.81,53.0,M,18.4,M,,*62\r\n"
  ],
  [
    19.572835683822632,
    "$GPGSA,A,3,08,07,30,01,,,,,,,,,4.30,2.81,3.25*07\r\n"
  ],
  [
    19.573267936706543,
    "$GPGSV,4,1,14,01,27,187,15,02,61,084,09,04,02,207,,07,54,288,24*76\r\n"
  ],
  [
    19.57368302345276,
    "$GPGSV,4,2,14,08,72,005,16,09,08,236,08,10,09,074,,14,03,296,*7B\r\n"
  ],
  [
    19.574113368988037,
    "$GPGSV,4,3,14,16,30,096,,21,55,170,,23,03,042,,26,03,112,*74\r\n"
  ],
  [
    19.574424982070923,
    "$GPGSV,4,4,14,27,41,048,,30,27,312,22*76\r\n"
  ],
  [
    19.574795961380005,
    "$GPGLL,3733.71603,N,12656.07801,E,002034.00,A,A*63\r\n"
  ],
  [
    20.570459604263306,
    "$GPRMC,002035.00,A,3733.71636,N,12656.07776,E,1.087,,230523,,,A*79\r\n"
  ],
  [
    20.57075047492981,
    "$GPVTG,,T,,M,1.087,N,2.013,K,A*2D\r\n"
  ],
  [
    20.57124662399292,
    "$GPGGA,002035.00,3733.71636,N,12656.07776,E,1,04,2.81,53.3,M,18.4,M,,*69\r\n"
  ],
  [
    20.571593761444092,
    "$GPGSA,A,3,08,07,30,01,,,,,,,,,4.30,2.81,3.25*07\r\n"
  ],
  [
    20.572062015533447,
    "$GPGSV,4,1,14,01,27,187,16,02,61,084,09,04,02,207,,07,54,288,25*74\r\n"
  ],
  [
    20.57250475883484,
    "$GPGSV,4,2,14,08,72,005,18,09,08,236,08,10,09,074,,14,03,296,*75\r\n"
  ],
  [
    20.572909355163574,
    "$GPGSV,4,3,14,16,30,096,,21,55,170,,23,03,042,,26,03,112,*74\r\n"
  ],
  [
    20.573196172714233,
    "$GPGSV,4,4,14,27,41,048,,30,27,312,24*70\r\n"
  ],
  [
    20.573537826538086,
    "$GPGLL,3733.71636,N,12656.07776,E,002035.00,A,A*6B\r\n"
  ],
  [
    21.564723014831543,
    "$GPRMC,002036.00,A,3733.71647,N,12656.07813,E,0.962,,230523,,,A*73\r\n"
  ],
  [
    21.564973831176758,
    "$GPVTG,,T,,M,0.962,N,1.781,K,A*21\r\n"
  ],
  [
    21.565507173538208,
    "$GPGGA,002036.00,3733.71647,N,12656.07813,E,1,03,3.40,53.6,M,18.4,M,,*6E\r\n"
  ],
  [
    21.56583571434021,
    "$GPGSA,A,3,08,07,30,,,,,,,,,,5.59,3.40,4.44*04\r\n"
  ],
  [
    21.566270351409912,
    "$GPGSV,4,1,14,01,27,187,,02,61,084,08,04,02,207,,07,54,288,23*74\r\n"
  ],
  [
    21.566712617874146,
    "$GPGSV,4,2,14,08,72,005,18,09,08,236,,10,09,074,,14,03,296,*7D\r\n"
  ],
  [
    21.56712579727173,
    "$GPGSV,4,3,14,16,30,096,,21,55,170,,23,03,042,,26,03,112,*74\r\n"
  ],
  [
    21.567420482635498,
    "$GPGSV,4,4,14,27,41,048,,30,27,312,22*76\r\n"
  ],
  [
    21.56774067878723,
    "$GPGLL,3733.71647,N,12656.07813,E,002036.00,A,A*62\r\n"
  ],
  [
    22.562692880630493,
    "$GPRMC,002037.00,A,3733.71653,N,12656.07807,E,0.841,,230523,,,A*72\r\n"
  ],
  [
    22.563000202178955,
    "$GPVTG,,T,,M,0.841,N,1.558,K,A*27\r\n"
  ],
  [
    22.563563108444214,
    "$GPGGA,002037.00,3733.71653,N,12656.07807,E,1,03,3.40,53.9,M,18.4,M,,*60\r\n"
  ],
  [
    22.563883066177368,
    "$GPGSA,A,3,08,07,30,,,,,,,,,,5.59,3.40,4.44*04\r\n"
  ],
  [
    22.56432294845581,
    "$GPGSV,4,1,14,01,27,187,05,02,61,084,07,04,02,207,,07,54,288,24*79\r\n"
  ],
  [
    22.56472611427307,
    "$GPGSV,4,2,14,08,72,005,18,09,08,236,,10,09,074,,14,03,296,*7D\r\n"
  ],
  [
    22.565115213394165,
    "$GPGSV,4,3,14,16,30,096,,21,55,170,,23,03,042,,26,03,112,*74\r\n"
  ],
  [
    22.565388917922974,
    "$GPGSV,4,4,14,27,41,048,,30,27,312,22*76\r\n"
  ],
  [
    22.56571626663208,
    "$GPGLL,3733.71653,N,12656.07807,E,002037.00,A,A*63\r\n"
  ],
  [
    23.571871995925903,
    "$GPRMC,002038.00,A,3733.71705,N,12656.07747,E,1.192,,230523,,,A*72\r\n"
  ],
  [
    23.572199821472168,
    "$GPVTG,,T,,M,1.192,N,2.207,K,A*2F\r\n"
  ],
  [
    23.57275938987732,
    "$GPGGA,002038.00,3733.71705,N,12656.07747,E,1,03,3.40,54.1,M,18.4,M,,*69\r\n"
  ],
  [
    23.573150634765625,
    "$GPGSA,A,3,08,07,30,,,,,,,,,,5.59,3.40,4.44*04\r\n"
  ],
  [
    23.573620080947876,
    "$GPGSV,4,1,14,01,27,187,09,02,61,084,,04,02,207,,07,54,288,23*75\r\n"
  ],
  [
    23.574023246765137,
    "$GPGSV,4,2,14,08,72,005,17,09,08,236,,10,09,074,,14,03,296,*72\r\n"
  ],
  [
    23.574420928955078,
    "$GPGSV,4,3,14,16,30,096,,21,55,170,,23,03,042,,26,03,112,*74\r\n"
  ],
  [
    23.57468843460083,
    "$GPGSV,4,4,14,27,41,048,,30,27,312,21*75\r\n"
  ],
  [
    23.57501983642578,
    "$GPGLL,3733.71705,N,12656.07747,E,002038.00,A,A*65\r\n"
  ],
  [
    24.570411205291748,
    "$GPRMC,002039.00,A,3733.71714,N,12656.07743,E,1.126,,230523,,,A*78\r\n"
  ],
  [
    24.570716381072998,
    "$GPVTG,,T,,M,1.126,N,2.085,K,A*28\r\n"
  ],
  [
    24.57128357887268,
    "$GPGGA,002039.00,3733.71714,N,12656.07743,E,1,03,3.40,54.5,M,18.4,M,,*68\r\n"
  ],
  [
    24.571619510650635,
    "$GPGSA,A,3,08,07,30,,,,,,,,,,5.59,3.40,4.44*04\r\n"
  ],
  [
    24.572031497955322,
    "$GPGSV,4,1,14,01,27,187,14,02,61,084,,04,02,207,,07,54,288,22*78\r\n"
  ],
  [
    24.57245111465454,
    "$GPGSV,4,2,14,08,72,005,17,09,08,236,,10,09,074,,14,03,296,*72\r\n"
  ],
  [
    24.572840452194214,
    "$GPGSV,4,3,14,16,30,096,,21,55,170,,23,03,042,,26,03,112,*74\r\n"
  ],
  [
    24.573105812072754,
    "$GPGSV,4,4,14,27,41,048,,30,27,312,21*75\r\n"
  ],
  [
    24.573441982269287,
    "$GPGLL,3733.71714,N,12656.07743,E,002039.00,A,A*60\r\n"
  ],
  [
    25.569763898849487,
    "$GPRMC,002040.00,A,3733.71713,N,12656.07646,E,1.121,,230523,,,A*72\r\n"
  ],
  [
    25.570071697235107,
    "$GPVTG,,T,,M,1.121,N,2.075,K,A*20\r\n"
  ],
  [
    25.57065749168396,
    "$GPGGA,002040.00,3733.71713,N,12656.07646,E,1,03,3.40,54.9,M,18.4,M,,*69\r\n"
  ],
  [
    25.571051359176636,
    "$GPGSA,A,3,08,07,30,,,,,,,,,,5.59,3.40,4.44*04\r\n"
  ],
  [
    25.57151174545288,
    "$GPGSV,4,1,14,01,27,187,15,02,61,084,,04,02,207,,07,54,288,20*7B\r\n"
  ],
  [
    25.571914196014404,
    "$GPGSV,4,2,14,08,72,005,15,09,08,236,,10,09,074,,14,03,296,*70\r\n"
  ],
  [
    25.57231879234314,
    "$GPGSV,4,3,14,16,30,096,,21,55,170,,23,03,042,,26,03,112,*74\r\n"
  ],
  [
    25.572585821151733,
    "$GPGSV,4,4,14,27,41,048,,30,27,312,19*7E\r\n"
  ],
  [
    25.57291579246521,
    "$GPGLL,3733.71713,N,12656.07646,E,002040.00,A,A*6D\r\n"
  ],
  [
    26.56885075569153,
    "$GPRMC,002041.00,A,3733.71713,N,12656.07581,E,1.024,,230523,,,A*7F\r\n"
  ],
  [
    26.569207668304443,
    "$GPVTG,,T,,M,1.024,N,1.896,K,A*22\r\n"
  ],
  [
    26.56977152824402,
    "$GPGGA,002041.00,3733.71713,N,12656.07581,E,1,03,3.40,55.5,M,18.4,M,,*6D\r\n"
  ],
  [
    26.57016134262085,
    "$GPGSA,A,3,08,07,30,,,,,,,,,,5.59,3.40,4.44*04\r\n"
  ],
  [
    26.57057547569275,
    "$GPGSV,4,1,14,01,27,187,12,02,61,084,,04,02,207,,07,54,288,19*76\r\n"
  ],
  [
    26.57097625732422,
    "$GPGSV,4,2,14,08,72,005,18,09,08,236,,10,09,074,,14,03,296,*7D\r\n"
  ],
  [
    26.571372032165527,
    "$GPGSV,4,3,14,16,30,096,,21,55,170,,23,03,042,,26,03,112,*74\r\n"
  ],
  [
    26.571637868881226,
    "$GPGSV,4,4,14,27,41,048,,30,27,312,15*72\r\n"
  ],
  [
    26.571964263916016,
    "$GPGLL,3733.71713,N,12656.07581,E,002041.00,A,A*64\r\n"
  ],
  [
    27.569432020187378,
    "$GPRMC,002042.00,A,3733.71705,N,12656.07515,E,0.970,,230523,,,A*7F\r\n"
  ],
  [
    27.56973695755005,
    "$GPVTG,,T,,M,0.970,N,1.797,K,A*25\r\n"
  ],
  [
    27.570277214050293,
    "$GPGGA,002042.00,3733.71705,N,12656.07515,E,1,03,3.40,55.9,M,18.4,M,,*68\r\n"
  ],
  [
    27.57060980796814,
    "$GPGSA,A,3,08,07,30,,,,,,,,,,5.60,3.40,4.44*0E\r\n"
  ],
  [
    27.571029901504517,
    "$GPGSV,4,1,14,01,27,187,,02,61,084,,04,02,207,,07,54,288,19*75\r\n"
  ],
  [
    27.571439743041992,
    "$GPGSV,4,2,14,08,72,005,20,09,08,236,,10,09,074,,14,03,296,*76\r\n"
  ],
  [
    27.57182788848877,
    "$GPGSV,4,3,14,16,30,096,,21,55,170,,23,03,042,,26,03,112,*74\r\n"
  ],
  [
    27.572096824645996,
    "$GPGSV,4,4,14,27,41,048,,30,27,312,14*73\r\n"
  ],
  [
    27.57245659828186,
    "$GPGLL,3733.71705,N,12656.07515,E,002042.00,A,A*6D\r\n"
  ],
  [
    28.56693387031555,
    "$GPRMC,002043.00,A,3733.71796,N,12656.07511,E,1.301,,230523,,,A*7D\r\n"
  ],
  [
    28.567241430282593,
    "$GPVTG,,T,,M,1.301,N,2.410,K,A*27\r\n"
  ],
  [
    28.567764282226562,
    "$GPGGA,002043.00,3733.71796,N,12656.07511,E,1,03,3.40,56.2,M,18.4,M,,*6F\r\n"
  ],
  [
    28.56814455986023,
    "$GPGSA,A,3,08,07,30,,,,,,,,,,5.60,3.40,4.45*0F\r\n"
  ],
  [
    28.568540334701538,
    "$GPGSV,4,1,14,01,27,187,,02,61,084,,04,01,207,,07,54,288,19*76\r\n"
  ],
  [
    28.5689435005188,
    "$GPGSV,4,2,14,08,72,005,21,09,08,236,07,10,09,074,,14,03,296,*70\r\n"
  ],
  [
    28.569329738616943,
    "$GPGSV,4,3,14,16,30,096,,21,55,170,,23,03,042,,26,03,112,*74\r\n"
  ],
  [
    28.569590091705322,
    "$GPGSV,4,4,14,27,41,048,,30,27,312,16*71\r\n"
  ],
  [
    28.569910049438477,
    "$GPGLL,3733.71796,N,12656.07511,E,002043.00,A,A*62\r\n"
  ],
  [
    29.568119764328003,
    "$GPRMC,002044.00,A,3733.71787,N,12656.07532,E,0.905,,230523,,,A*74\r\n"
  ],
  [
    29.568447828292847,
    "$GPVTG,,T,,M,0.905,N,1.676,K,A*29\r\n"
  ],
  [
    29.56898283958435,
    "$GPGGA,002044.00,3733.71787,N,12656.07532,E,1,03,3.40,56.7,M,18.4,M,,*6C\r\n"
  ],
  [
    29.569310426712036,
    "$GPGSA,A,3,08,07,30,,,,,,,,,,5.60,3.40,4.45*0F\r\n"
  ],
  [
    29.569743871688843,
    "$GPGSV,4,1,14,01,27,187,05,02,61,084,,04,01,207,,07,54,288,21*78\r\n"
  ],
  [
    29.570165157318115,
    "$GPGSV,4,2,14,08,72,005,25,09,08,236,15,10,09,074,,14,03,296,*77\r\n"
  ],
  [
    29.570566654205322,
    "$GPGSV,4,3,14,16,30,096,,21,55,170,19,23,03,042,,26,03,112,*7C\r\n"
  ],
  [
    29.57083296775818,
    "$GPGSV,4,4,14,27,41,048,,30,27,312,17*70\r\n"
  ],
  [
    29.571167707443237,
    "$GPGLL,3733.71787,N,12656.07532,E,002044.00,A,A*64\r\n"
  ],
  [
    30.577372789382935,
    "$GPRMC,002045.00,A,3733.71795,N,12656.07490,E,1.057,,230523,,,A*70\r\n"
  ],
  [
    30.57767963409424,
    "$GPVTG,,T,,M,1.057,N,1.958,K,A*25\r\n"
  ],
  [
    30.578187465667725,
    "$GPGGA,002045.00,3733.71795,N,12656.07490,E,1,03,3.40,56.9,M,18.4,M,,*69\r\n"
  ],
  [
    30.578561305999756,
    "$GPGSA,A,3,08,07,30,,,,,,,,,,5.60,3.40,4.45*0F\r\n"
  ],
  [
    30.57898759841919,
    "$GPGSV,4,1,14,01,27,187,08,02,61,084,,04,01,207,,07,54,288,22*76\r\n"
  ],
  [
    30.579418659210205,
    "$GPGSV,4,2,14,08,72,005,26,09,08,236,19,10,09,074,,14,03,296,*78\r\n"
  ],
  [
    30.579833269119263,
    "$GPGSV,4,3,14,16,30,096,,21,55,170,19,23,03,042,,26,03,112,*7C\r\n"
  ],
  [
    30.580111026763916,
    "$GPGSV,4,4,14,27,41,048,,30,27,312,19*7E\r\n"
  ],
  [
    30.58045721054077,
    "$GPGLL,3733.71795,N,12656.07490,E,002045.00,A,A*6F\r\n"
  ],
  [
    31.58041024208069,
    "$GPRMC,002046.00,A,3733.71677,N,12656.07473,E,0.624,,230523,,,A*70\r\n"
  ],
  [
    31.580819845199585,
    "$GPVTG,,T,,M,0.624,N,1.156,K,A*20\r\n"
  ],
  [
    31.581448793411255,
    "$GPGGA,002046.00,3733.71677,N,12656.07473,E,1,04,2.79,56.5,M,18.4,M,,*6A\r\n"
  ],
  [
    31.581892013549805,
    "$GPGSA,A,3,08,07,30,09,,,,,,,,,4.36,2.79,3.35*0F\r\n"
  ],
  [
    31.582379579544067,
    "$GPGSV,4,1,14,01,27,187,11,02,61,084,,04,01,207,,07,55,287,24*76\r\n"
  ],
  [
    31.582845449447632,
    "$GPGSV,4,2,14,08,72,005,25,09,08,236,19,10,09,074,,14,03,296,*7B\r\n"
  ],
  [
    31.583311796188354,
    "$GPGSV,4,3,14,16,30,096,,21,55,170,20,23,03,042,,26,03,112,*76\r\n"
  ],
  [
    31.58362889289856,
    "$GPGSV,4,4,14,27,41,048,,30,27,312,27*73\r\n"
  ],
  [
    31.584030628204346,
    "$GPGLL,3733.71677,N,12656.07473,E,002046.00,A,A*6C\r\n"
  ],
  [
    32.58119821548462,
    "$GPRMC,002047.00,A,3733.71488,N,12656.07419,E,0.883,,230523,,,A*7C\r\n"
  ],
  [
    32.58159875869751,
    "$GPVTG,,T,,M,0.883,N,1.635,K,A*21\r\n"
  ],
  [
    32.58221793174744,
    "$GPGGA,002047.00,3733.71488,N,12656.07419,E,1,05,2.57,56.4,M,18.4,M,,*69\r\n"
  ],
  [
    32.58268332481384,
    "$GPGSA,A,3,08,07,21,30,09,,,,,,,,4.18,2.57,3.29*01\r\n"
  ],
  [
    32.58315348625183,
    "$GPGSV,4,1,14,01,27,187,15,02,61,084,22,04,01,207,,07,55,287,30*77\r\n"
  ],
  [
    32.58360981941223,
    "$GPGSV,4,2,14,08,72,006,25,09,08,236,18,10,09,074,,14,03,296,*79\r\n"
  ],
  [
    32.58415079116821,
    "$GPGSV,4,3,14,16,30,096,,21,55,170,24,23,03,042,,26,03,112,*72\r\n"
  ],
  [
    32.58454203605652,
    "$GPGSV,4,4,14,27,41,048,,30,27,312,25*71\r\n"
  ],
  [
    32.58493375778198,
    "$GPGLL,3733.71488,N,12656.07419,E,002047.00,A,A*63\r\n"
  ],
  [
    33.582393407821655,
    "$GPRMC,002048.00,A,3733.71357,N,12656.07450,E,0.650,,230523,,,A*7B\r\n"
  ],
  [
    33.58272624015808,
    "$GPVTG,,T,,M,0.650,N,1.203,K,A*20\r\n"
  ],
  [
    33.58330512046814,
    "$GPGGA,002048.00,3733.71357,N,12656.07450,E,1,06,2.48,56.6,M,18.4,M,,*61\r\n"
  ],
  [
    33.5837037563324,
    "$GPGSA,A,3,08,07,21,30,01,09,,,,,,,3.99,2.48,3.13*09\r\n"
  ],
  [
    33.58424925804138,
    "$GPGSV,4,1,14,01,27,187,19,02,61,084,20,04,01,207,,07,55,287,27*7F\r\n"
  ],
  [
    33.584763050079346,
    "$GPGSV,4,2,14,08,72,006,25,09,08,236,18,10,09,074,,14,03,296,*79\r\n"
  ],
  [
    33.58517646789551,
    "$GPGSV,4,3,14,16,30,096,,21,55,170,25,23,03,042,,26,03,112,*73\r\n"
  ],
  [
    33.58544325828552,
    "$GPGSV,4,4,14,27,41,048,,30,27,312,23*77\r\n"
  ],
  [
    33.58577108383179,
    "$GPGLL,3733.71357,N,12656.07450,E,002048.00,A,A*64\r\n"
  ],
  [
    34.58278298377991,
    "$GPRMC,002049.00,A,3733.71348,N,12656.07462,E,0.563,,230523,,,A*76\r\n"
  ],
  [
    34.583245515823364,
    "$GPVTG,,T,,M,0.563,N,1.042,K,A*24\r\n"
  ],
  [
    34.58389234542847,
    "$GPGGA,002049.00,3733.71348,N,12656.07462,E,1,06,2.48,56.2,M,18.4,M,,*6B\r\n"
  ],
  [
    34.58452558517456,
    "$GPGSA,A,3,08,07,21,30,01,09,,,,,,,3.99,2.48,3.13*09\r\n"
  ],
  [
    34.58497500419617,
    "$GPGSV,4,1,14,01,27,187,19,02,61,084,16,04,01,207,10,07,55,287,19*76\r\n"
  ],
  [
    34.58544325828552,
    "$GPGSV,4,2,14,08,72,006,23,09,08,236,18,10,09,073,,14,03,296,*78\r\n"
  ],
  [
    34.58584904670715,
    "$GPGSV,4,3,14,16,30,096,,21,55,170,24,23,03,042,,26,03,112,*72\r\n"
  ],
  [
    34.58611583709717,
    "$GPGSV,4,4,14,27,41,048,,30,27,312,21*75\r\n"
  ],
  [
    34.58646082878113,
    "$GPGLL,3733.71348,N,12656.07462,E,002049.00,A,A*6A\r\n"
  ],
  [
    35.58385133743286,
    "$GPRMC,002050.00,A,3733.71268,N,12656.07463,E,0.711,,230523,,,A*7B\r\n"
  ],
  [
    35.58430552482605,
    "$GPVTG,,T,,M,0.711,N,1.317,K,A*20\r\n"
  ],
  [
    35.58485794067383,
    "$GPGGA,002050.00,3733.71268,N,12656.07463,E,1,06,2.48,55.6,M,18.4,M,,*66\r\n"
  ],
  [
    35.58522987365723,
    "$GPGSA,A,3,08,07,21,30,01,09,,,,,,,3.99,2.48,3.13*09\r\n"
  ],
  [
    35.585731983184814,
    "$GPGSV,4,1,14,01,27,187,20,02,61,084,14,04,01,207,08,07,55,287,24*79\r\n"
  ],
  [
    35.58615565299988,
    "$GPGSV,4,2,14,08,72,006,25,09,08,236,16,10,09,073,,14,03,296,*70\r\n"
  ],
  [
    35.586559534072876,
    "$GPGSV,4,3,14,16,30,096,,21,55,170,26,23,03,042,,26,03,112,*70\r\n"
  ],
  [
    35.586833238601685,
    "$GPGSV,4,4,14,27,41,048,,30,27,312,21*75\r\n"
  ],
  [
    35.58716917037964,
    "$GPGLL,3733.71268,N,12656.07463,E,002050.00,A,A*60\r\n"
  ],
  [
    36.58196568489075,
    "$GPRMC,002051.00,A,3733.71170,N,12656.07454,E,0.753,,230523,,,A*72\r\n"
  ],
  [
    36.58231997489929,
    "$GPVTG,,T,,M,0.753,N,1.395,K,A*2C\r\n"
  ],
  [
    36.582712173461914,
    "$GPGGA,002051.00,3733.71170,N,12656.07454,E,1,07,1.79,55.1,M,18.4,M,,*6E\r\n"
  ],
  [
    36.582847356796265,
    "$GPGSA,A,3,08,02,07,21,30,01,09,,,,,,3.06,1.79,2.49*02\r\n"
  ],
  [
    36.583006620407104,
    "$GPGSV,4,1,14,01,27,187,23,02,61,084,14,04,01,207,08,07,55,287,27*79\r\n"
  ],
  [
    36.58315873146057,
    "$GPGSV,4,2,14,08,72,006,26,09,08,236,18,10,09,073,,14,03,296,*7D\r\n"
  ],
  [
    36.58330297470093,
    "$GPGSV,4,3,14,16,30,096,,21,55,170,31,23,03,042,,26,03,112,*76\r\n"
  ],
  [
    36.58339858055115,
    "$GPGSV,4,4,14,27,41,048,,30,27,312,23*77\r\n"
  ],
  [
    36.583515644073486,
    "$GPGLL,3733.71170,N,12656.07454,E,002051.00,A,A*6F\r\n"
  ],
  [
    37.57977652549744,
    "$GPRMC,002052.00,A,3733.71110,N,12656.07399,E,1.213,,230523,,,A*71\r\n"
  ],
  [
    37.580079555511475,
    "$GPVTG,,T,,M,1.213,N,2.247,K,A*21\r\n"
  ],
  [
    37.580666065216064,
    "$GPGGA,002052.00,3733.71110,N,12656.07399,E,1,07,1.79,54.8,M,18.4,M,,*65\r\n"
  ],
  [
    37.58111047744751,
    "$GPGSA,A,3,08,02,07,21,30,01,09,,,,,,3.06,1.79,2.49*02\r\n"
  ],
  [
    37.58154606819153,
    "$GPGSV,4,1,14,01,27,187,23,02,61,084,16,04,01,207,,07,55,287,27*73\r\n"
  ],
  [
    37.58195972442627,
    "$GPGSV,4,2,14,08,72,006,26,09,08,236,18,10,09,073,,14,03,296,*7D\r\n"
  ],
  [
    37.58236908912659,
    "$GPGSV,4,3,14,16,30,096,,21,55,170,29,23,03,042,,26,03,112,*7F\r\n"
  ],
  [
    37.582635164260864,
    "$GPGSV,4,4,14,27,41,048,,30,27,312,25*71\r\n"
  ],
  [
    37.58296227455139,
    "$GPGLL,3733.71110,N,12656.07399,E,002052.00,A,A*6C\r\n"
  ],
  [
    38.57701849937439,
    "$GPRMC,002053.00,A,3733.71016,N,12656.07359,E,1.639,289.33,230523,,,A*6A\r\n"
  ],
  [
    38.577340841293335,
    "$GPVTG,289.33,T,,M,1.639,N,3.036,K,A*35\r\n"
  ],
  [
    38.577820777893066,
    "$GPGGA,002053.00,3733.71016,N,12656.07359,E,1,07,1.79,54.6,M,18.4,M,,*61\r\n"
  ],
  [
    38.57819414138794,
    "$GPGSA,A,3,08,02,07,21,30,01,09,,,,,,3.06,1.79,2.49*02\r\n"
  ],
  [
    38.57863640785217,
    "$GPGSV,4,1,14,01,27,187,23,02,61,084,21,04,01,207,,07,55,287,28*78\r\n"
  ],
  [
    38.579039096832275,
    "$GPGSV,4,2,14,08,72,006,32,09,08,236,30,10,09,073,,14,03,296,*72\r\n"
  ],
  [
    38.57944464683533,
    "$GPGSV,4,3,14,16,30,096,,21,55,170,32,23,03,042,,26,03,112,*75\r\n"
  ],
  [
    38.579705238342285,
    "$GPGSV,4,4,14,27,41,048,,30,27,312,32*77\r\n"
  ],
  [
    38.5800256729126,
    "$GPGLL,3733.71016,N,12656.07359,E,002053.00,A,A*66\r\n"
  ],
  [
    39.587509870529175,
    "$GPRMC,002054.00,A,3733.70924,N,12656.07332,E,2.034,239.47,230523,,,A*69\r\n"
  ],
  [
    39.58790612220764,
    "$GPVTG,239.47,T,,M,2.034,N,3.767,K,A*36\r\n"
  ],
  [
    39.588422536849976,
    "$GPGGA,002054.00,3733.70924,N,12656.07332,E,1,07,1.79,52.0,M,18.4,M,,*62\r\n"
  ],
  [
    39.58880138397217,
    "$GPGSA,A,3,08,02,07,21,30,01,09,,,,,,3.06,1.79,2.49*02\r\n"
  ],
  [
    39.589240074157715,
    "$GPGSV,4,1,14,01,27,187,29,02,61,084,29,04,01,207,,07,55,287,28*7A\r\n"
  ],
  [
    39.589664459228516,
    "$GPGSV,4,2,14,08,72,006,31,09,08,236,29,10,09,073,,14,03,296,*79\r\n"
  ],
  [
    39.59006428718567,
    "$GPGSV,4,3,14,16,30,096,,21,55,170,28,23,03,042,,26,03,112,*7E\r\n"
  ],
  [
    39.59033727645874,
    "$GPGSV,4,4,14,27,41,048,,30,27,312,31*74\r\n"
  ],
  [
    39.5906822681427,
    "$GPGLL,3733.70924,N,12656.07332,E,002054.00,A,A*65\r\n"
  ],
  [
    40.573193073272705,
    "$GPRMC,002055.00,A,3733.70822,N,12656.07324,E,2.142,214.72,230523,,,A*61\r\n"
  ],
  [
    40.57353353500366,
    "$GPVTG,214.72,T,,M,2.142,N,3.967,K,A*31\r\n"
  ],
  [
    40.57404637336731,
    "$GPGGA,002055.00,3733.70822,N,12656.07324,E,1,07,1.79,51.4,M,18.4,M,,*64\r\n"
  ],
  [
    40.57447671890259,
    "$GPGSA,A,3,08,02,07,21,30,01,09,,,,,,3.06,1.79,2.49*02\r\n"
  ],
  [
    40.57491898536682,
    "$GPGSV,4,1,14,01,27,187,29,02,61,084,33,04,01,207,,07,55,287,27*7E\r\n"
  ],
  [
    40.575359582901,
    "$GPGSV,4,2,14,08,72,006,31,09,08,236,27,10,09,073,,14,03,296,*77\r\n"
  ],
  [
    40.575767993927,
    "$GPGSV,4,3,14,16,30,096,,21,55,170,26,23,03,042,,26,03,112,*70\r\n"
  ],
  [
    40.57605051994324,
    "$GPGSV,4,4,14,27,41,048,,30,27,312,29*7D\r\n"
  ],
  [
    40.576396465301514,
    "$GPGLL,3733.70822,N,12656.07324,E,002055.00,A,A*64\r\n"
  ],
  [
    41.57955813407898,
    "$GPRMC,002056.00,A,3733.70750,N,12656.07370,E,1.837,200.72,230523,,,A*64\r\n"
  ],
  [
    41.57991075515747,
    "$GPVTG,200.72,T,,M,1.837,N,3.403,K,A*33\r\n"
  ],
  [
    41.58053159713745,
    "$GPGGA,002056.00,3733.70750,N,12656.07370,E,1,07,1.79,49.8,M,18.4,M,,*69\r\n"
  ],
  [
    41.58096194267273,
    "$GPGSA,A,3,08,02,07,21,30,01,09,,,,,,3.06,1.79,2.49*02\r\n"
  ],
  [
    41.581411600112915,
    "$GPGSV,4,1,14,01,27,187,27,02,61,084,28,04,01,207,,07,55,287,27*7A\r\n"
  ],
  [
    41.58183813095093,
    "$GPGSV,4,2,14,08,72,006,30,09,08,236,26,10,09,073,,14,03,296,*77\r\n"
  ],
  [
    41.582242488861084,
    "$GPGSV,4,3,14,16,30,096,,21,55,170,25,23,03,042,,26,03,112,*73\r\n"
  ],
  [
    41.58250641822815,
    "$GPGSV,4,4,14,27,41,048,,30,27,312,15*72\r\n"
  ],
  [
    41.5828320980072,
    "$GPGLL,3733.70750,N,12656.07370,E,002056.00,A,A*6C\r\n"
  ],
  [
    42.581164598464966,
    "$GPRMC,002057.00,A,3733.70676,N,12656.07413,E,2.113,181.33,230523,,,A*61\r\n"
  ],
  [
    42.58151197433472,
    "$GPVTG,181.33,T,,M,2.113,N,3.912,K,A*3D\r\n"
  ],
  [
    42.58206748962402,
    "$GPGGA,002057.00,3733.70676,N,12656.07413,E,1,07,1.79,49.1,M,18.4,M,,*66\r\n"
  ],
  [
    42.58251643180847,
    "$GPGSA,A,3,08,02,07,21,30,01,09,,,,,,3.06,1.79,2.49*02\r\n"
  ],
  [
    42.58298945426941,
    "$GPGSV,4,1,14,01,27,187,28,02,61,084,27,04,01,207,,07,55,287,28*75\r\n"
  ],
  [
    42.58343195915222,
    "$GPGSV,4,2,14,08,72,006,23,09,08,236,26,10,09,073,,14,03,296,*75\r\n"
  ],
  [
    42.583850383758545,
    "$GPGSV,4,3,14,16,30,096,,21,55,170,24,23,03,042,,26,03,112,*72\r\n"
  ],
  [
    42.58425569534302,
    "$GPGSV,4,4,14,27,41,048,,30,27,312,13*74\r\n"
  ],
  [
    42.58465838432312,
    "$GPGLL,3733.70676,N,12656.07413,E,002057.00,A,A*6A\r\n"
  ],
  [
    43.584847927093506,
    "$GPRMC,002058.00,A,3733.70605,N,12656.07465,E,1.997,164.47,230523,,,A*64\r\n"
  ],
  [
    43.58514928817749,
    "$GPVTG,164.47,T,,M,1.997,N,3.699,K,A*3E\r\n"
  ],
  [
    43.58562111854553,
    "$GPGGA,002058.00,3733.70605,N,12656.07465,E,1,07,1.79,48.4,M,18.4,M,,*68\r\n"
  ],
  [
    43.586005449295044,
    "$GPGSA,A,3,08,02,07,21,30,01,09,,,,,,3.06,1.79,2.49*02\r\n"
  ],
  [
    43.58645725250244,
    "$GPGSV,4,1,14,01,27,187,28,02,61,084,32,04,01,207,,07,55,287,27*7E\r\n"
  ],
  [
    43.58687686920166,
    "$GPGSV,4,2,14,08,72,006,28,09,08,236,24,10,09,073,,14,03,296,*7C\r\n"
  ],
  [
    43.58728265762329,
    "$GPGSV,4,3,14,16,30,096,,21,55,170,25,23,03,042,,26,03,112,*73\r\n"
  ],
  [
    43.58757042884827,
    "$GPGSV,4,4,14,27,41,048,,30,27,312,15*72\r\n"
  ],
  [
    43.58790874481201,
    "$GPGLL,3733.70605,N,12656.07465,E,002058.00,A,A*60\r\n"
  ],
  [
    44.58501482009888,
    "$GPRMC,002059.00,A,3733.70563,N,12656.07532,E,1.742,157.34,230523,,,A*67\r\n"
  ],
  [
    44.58537745475769,
    "$GPVTG,157.34,T,,M,1.742,N,3.227,K,A*3D\r\n"
  ],
  [
    44.58587694168091,
    "$GPGGA,002059.00,3733.70563,N,12656.07532,E,1,07,1.79,47.1,M,18.4,M,,*63\r\n"
  ],
  [
    44.586281538009644,
    "$GPGSA,A,3,08,02,07,21,30,01,09,,,,,,3.06,1.79,2.49*02\r\n"
  ],
  [
    44.586724042892456,
    "$GPGSV,4,1,14,01,27,187,27,02,61,084,27,04,01,207,,07,55,287,26*74\r\n"
  ],
  [
    44.587158203125,
    "$GPGSV,4,2,14,08,72,006,30,09,08,236,23,10,09,073,,14,03,296,*72\r\n"
  ],
  [
    44.587591886520386,
    "$GPGSV,4,3,14,16,30,096,07,21,55,170,25,23,03,042,,26,03,112,*74\r\n"
  ],
  [
    44.58786869049072,
    "$GPGSV,4,4,14,27,41,048,,30,27,312,16*71\r\n"
  ],
  [
    44.58821511268616,
    "$GPGLL,3733.70563,N,12656.07532,E,002059.00,A,A*61\r\n"
  ],
  [
    45.585744857788086,
    "$GPRMC,002100.00,A,3733.70505,N,12656.07574,E,1.824,150.20,230523,,,A*65\r\n"
  ],
  [
    45.586036682128906,
    "$GPVTG,150.20,T,,M,1.824,N,3.379,K,A*3A\r\n"
  ],
  [
    45.58656454086304,
    "$GPGGA,002100.00,3733.70505,N,12656.07574,E,1,07,1.79,46.6,M,18.4,M,,*6A\r\n"
  ],
  [
    45.58693218231201,
    "$GPGSA,A,3,08,02,07,21,30,01,09,,,,,,3.06,1.79,2.49*02\r\n"
  ],
  [
    45.587371587753296,
    "$GPGSV,4,1,14,01,27,187,27,02,61,084,25,04,01,207,,07,55,287,30*71\r\n"
  ],
  [
    45.587783098220825,
    "$GPGSV,4,2,14,08,72,006,32,09,08,236,22,10,09,073,,14,03,296,*71\r\n"
  ],
  [
    45.58821082115173,
    "$GPGSV,4,3,14,16,30,096,15,21,55,169,24,23,03,042,,26,03,112,*7E\r\n"
  ],
  [
    45.588491678237915,
    "$GPGSV,4,4,14,27,41,048,,30,27,312,16*71\r\n"
  ],
  [
    45.58883047103882,
    "$GPGLL,3733.70505,N,12656.07574,E,002100.00,A,A*6E\r\n"
  ],
  [
    46.5858256816864,
    "$GPRMC,002101.00,A,3733.70458,N,12656.07684,E,1.862,146.77,230523,,,A*66\r\n"
  ],
  [
    46.585957765579224,
    "$GPVTG,146.77,T,,M,1.862,N,3.449,K,A*39\r\n"
  ],
  [
    46.586172342300415,
    "$GPGGA,002101.00,3733.70458,N,12656.07684,E,1,08,1.09,44.5,M,18.4,M,,*67\r\n"
  ],
  [
    46.58647394180298,
    "$GPGSA,A,3,08,02,07,21,16,30,01,09,,,,,1.81,1.09,1.44*01\r\n"
  ],
  [
    46.58688926696777,
    "$GPGSV,4,1,14,01,27,187,29,02,61,084,23,04,01,207,,07,55,287,29*71\r\n"
  ],
  [
    46.587316036224365,
    "$GPGSV,4,2,14,08,72,006,27,09,08,236,20,10,09,073,24,14,03,296,*71\r\n"
  ],
  [
    46.58771824836731,
    "$GPGSV,4,3,14,16,30,096,20,21,55,169,24,23,03,042,,26,03,112,*78\r\n"
  ],
  [
    46.58797812461853,
    "$GPGSV,4,4,14,27,41,048,,30,27,312,15*72\r\n"
  ],
  [
    46.58830785751343,
    "$GPGLL,3733.70458,N,12656.07684,E,002101.00,A,A*6A\r\n"
  ],
  [
    47.588361740112305,
    "$GPRMC,002102.00,A,3733.70388,N,12656.07737,E,2.067,143.11,230523,,,A*6D\r\n"
  ],
  [
    47.58867001533508,
    "$GPVTG,143.11,T,,M,2.067,N,3.829,K,A*38\r\n"
  ],
  [
    47.589189529418945,
    "$GPGGA,002102.00,3733.70388,N,12656.07737,E,1,08,1.09,44.2,M,18.4,M,,*60\r\n"
  ],
  [
    47.58961606025696,
    "$GPGSA,A,3,08,02,07,21,16,30,01,09,,,,,1.81,1.09,1.44*01\r\n"
  ],
  [
    47.590076208114624,
    "$GPGSV,4,1,14,01,27,187,29,02,61,084,22,04,01,207,,07,55,287,27*7E\r\n"
  ],
  [
    47.59053325653076,
    "$GPGSV,4,2,14,08,72,006,22,09,08,236,19,10,09,073,22,14,03,296,*78\r\n"
  ],
  [
    47.59096622467041,
    "$GPGSV,4,3,14,16,30,096,24,21,55,169,30,23,03,042,,26,03,112,*79\r\n"
  ],
  [
    47.591251611709595,
    "$GPGSV,4,4,14,27,41,048,,30,27,312,14*73\r\n"
  ],
  [
    47.591593742370605,
    "$GPGLL,3733.70388,N,12656.07737,E,002102.00,A,A*6A\r\n"
  ],
  [
    48.58923935890198,
    "$GPRMC,002103.00,A,3733.70319,N,12656.07774,E,2.028,141.31,230523,,,A*68\r\n"
  ],
  [
    48.58959436416626,
    "$GPVTG,141.31,T,,M,2.028,N,3.756,K,A*34\r\n"
  ],
  [
    48.59017753601074,
    "$GPGGA,002103.00,3733.70319,N,12656.07774,E,1,08,1.09,44.3,M,18.4,M,,*6F\r\n"
  ],
  [
    48.590596199035645,
    "$GPGSA,A,3,08,02,07,21,16,30,01,09,,,,,1.81,1.09,1.44*01\r\n"
  ],
  [
    48.59102272987366,
    "$GPGSV,4,1,14,01,27,187,28,02,61,084,21,04,01,207,,07,55,287,25*7E\r\n"
  ],
  [
    48.591495752334595,
    "$GPGSV,4,2,14,08,72,006,23,09,08,236,19,10,09,073,20,14,03,296,*7B\r\n"
  ],
  [
    48.591909646987915,
    "$GPGSV,4,3,14,16,30,096,24,21,55,169,30,23,03,042,,26,03,112,*79\r\n"
  ],
  [
    48.59218883514404,
    "$GPGSV,4,4,14,27,41,048,,30,27,312,12*75\r\n"
  ],
  [
    48.592529296875,
    "$GPGLL,3733.70319,N,12656.07774,E,002103.00,A,A*64\r\n"
  ],
  [
    49.59086012840271,
    "$GPRMC,002104.00,A,3733.70254,N,12656.07830,E,2.085,144.00,230523,,,A*68\r\n"
  ],
  [
    49.591227531433105,
    "$GPVTG,144.00,T,,M,2.085,N,3.861,K,A*3F\r\n"
  ],
  [
    49.59181070327759,
    "$GPGGA,002104.00,3733.70254,N,12656.07830,E,1,08,1.09,43.6,M,18.4,M,,*6D\r\n"
  ],
  [
    49.59223747253418,
    "$GPGSA,A,3,08,02,07,21,16,30,01,09,,,,,1.81,1.09,1.44*01\r\n"
  ],
  [
    49.59268403053284,
    "$GPGSV,4,1,14,01,27,187,26,02,61,084,20,04,01,207,,07,55,287,25*71\r\n"
  ],
  [
    49.5931122303009,
    "$GPGSV,4,2,14,08,72,006,22,09,08,236,19,10,09,073,19,14,03,296,*70\r\n"
  ],
  [
    49.59355068206787,
    "$GPGSV,4,3,14,16,30,096,26,21,55,169,29,23,03,042,,26,03,113,*72\r\n"
  ],
  [
    49.593830585479736,
    "$GPGSV,4,4,14,27,41,048,,30,27,312,10*77\r\n"
  ],
  [
    49.59417939186096,
    "$GPGLL,3733.70254,N,12656.07830,E,002104.00,A,A*64\r\n"
  ],
  [
    50.5799925327301,
    "$GPRMC,002105.00,A,3733.70215,N,12656.07887,E,1.873,144.69,230523,,,A*6D\r\n"
  ],
  [
    50.58041977882385,
    "$GPVTG,144.69,T,,M,1.873,N,3.469,K,A*36\r\n"
  ],
  [
    50.580997705459595,
    "$GPGGA,002105.00,3733.70215,N,12656.07887,E,1,08,1.09,42.4,M,18.4,M,,*66\r\n"
  ],
  [
    50.58138608932495,
    "$GPGSA,A,3,08,02,07,21,16,30,01,09,,,,,1.81,1.09,1.44*01\r\n"
  ],
  [
    50.58181095123291,
    "$GPGSV,4,1,14,01,27,187,25,02,61,084,21,04,01,207,,07,55,287,25*73\r\n"
  ],
  [
    50.582281827926636,
    "$GPGSV,4,2,14,08,72,006,24,09,08,236,18,10,09,073,16,14,03,296,*78\r\n"
  ],
  [
    50.58271670341492,
    "$GPGSV,4,3,14,16,30,096,25,21,55,169,29,23,03,042,,26,03,113,*71\r\n"
  ],
  [
    50.58299279212952,
    "$GPGSV,4,4,14,27,41,048,,30,27,312,11*76\r\n"
  ],
  [
    50.583345890045166,
    "$GPGLL,3733.70215,N,12656.07887,E,002105.00,A,A*6C\r\n"
  ],
  [
    51.58004188537598,
    "$GPRMC,002106.00,A,3733.70213,N,12656.07959,E,1.614,135.10,230523,,,A*6D\r\n"
  ],
  [
    51.58045840263367,
    "$GPVTG,135.10,T,,M,1.614,N,2.990,K,A*3B\r\n"
  ],
  [
    51.58104729652405,
    "$GPGGA,002106.00,3733.70213,N,12656.07959,E,1,08,1.09,41.3,M,18.4,M,,*65\r\n"
  ],
  [
    51.58150839805603,
    "$GPGSA,A,3,08,02,07,21,16,30,01,09,,,,,1.81,1.09,1.44*01\r\n"
  ],
  [
    51.581993103027344,
    "$GPGSV,4,1,14,01,27,187,31,02,61,084,31,04,01,207,,07,55,287,26*74\r\n"
  ],
  [
    51.582481145858765,
    "$GPGSV,4,2,14,08,72,006,34,09,08,236,18,10,09,073,14,14,03,296,*7B\r\n"
  ],
  [
    51.58294439315796,
    "$GPGSV,4,3,14,16,30,096,26,21,55,169,30,23,03,042,,26,03,113,*7A\r\n"
  ],
  [
    51.583274364471436,
    "$GPGSV,4,4,14,27,41,048,,30,27,312,12*75\r\n"
  ],
  [
    51.58364939689636,
    "$GPGLL,3733.70213,N,12656.07959,E,002106.00,A,A*6B\r\n"
  ],
  [
    52.58141756057739,
    "$GPRMC,002107.00,A,3733.70202,N,12656.08004,E,1.504,130.74,230523,,,A*67\r\n"
  ],
  [
    52.581788301467896,
    "$GPVTG,130.74,T,,M,1.504,N,2.786,K,A*37\r\n"
  ],
  [
    52.58241009712219,
    "$GPGGA,002107.00,3733.70202,N,12656.08004,E,1,08,1.09,41.2,M,18.4,M,,*6B\r\n"
  ],
  [
    52.58286094665527,
    "$GPGSA,A,3,08,02,07,21,16,30,01,09,,,,,1.81,1.09,1.44*01\r\n"
  ],
  [
    52.58329176902771,
    "$GPGSV,4,1,14,01,27,187,29,02,61,084,32,04,01,207,,07,55,287,24*7C\r\n"
  ],
  [
    52.58372616767883,
    "$GPGSV,4,2,14,08,72,006,32,09,08,236,21,10,09,073,14,14,03,296,*77\r\n"
  ],
  [
    52.584325313568115,
    "$GPGSV,4,3,14,16,30,096,26,21,55,169,29,23,03,042,,26,03,113,*72\r\n"
  ],
  [
    52.584614276885986,
    "$GPGSV,4,4,14,27,41,048,,30,27,312,15*72\r\n"
  ],
  [
    52.584961891174316,
    "$GPGLL,3733.70202,N,12656.08004,E,002107.00,A,A*64\r\n"
  ],
  [
    53.58542013168335,
    "$GPRMC,002108.00,A,3733.70230,N,12656.08066,E,1.424,103.31,230523,,,A*6F\r\n"
  ],
  [
    53.58574628829956,
    "$GPVTG,103.31,T,,M,1.424,N,2.638,K,A*31\r\n"
  ],
  [
    53.58623194694519,
    "$GPGGA,002108.00,3733.70230,N,12656.08066,E,1,08,1.09,41.7,M,18.4,M,,*64\r\n"
  ],
  [
    53.586612701416016,
    "$GPGSA,A,3,08,02,07,21,16,30,01,09,,,,,1.81,1.09,1.44*01\r\n"
  ],
  [
    53.58703899383545,
    "$GPGSV,4,1,14,01,27,187,29,02,61,084,29,04,01,207,,07,55,287,26*74\r\n"
  ],
  [
    53.58747172355652,
    "$GPGSV,4,2,14,08,72,006,30,09,08,236,23,10,09,073,12,14,03,296,*71\r\n"
  ],
  [
    53.58788442611694,
    "$GPGSV,4,3,14,16,30,096,25,21,55,169,29,23,03,042,,26,03,113,*71\r\n"
  ],
  [
    53.588157653808594,
    "$GPGSV,4,4,14,27,41,048,,30,27,312,17*70\r\n"
  ],
  [
    53.58848547935486,
    "$GPGLL,3733.70230,N,12656.08066,E,002108.00,A,A*6E\r\n"
  ],
  [
    54.58624243736267,
    "$GPRMC,002109.00,A,3733.70211,N,12656.08132,E,1.568,109.28,230523,,,A*66\r\n"
  ],
  [
    54.586568117141724,
    "$GPVTG,109.28,T,,M,1.568,N,2.903,K,A*3D\r\n"
  ],
  [
    54.58707308769226,
    "$GPGGA,002109.00,3733.70211,N,12656.08132,E,1,08,1.09,42.5,M,18.4,M,,*67\r\n"
  ],
  [
    54.58749008178711,
    "$GPGSA,A,3,08,02,07,21,16,30,01,09,,,,,1.81,1.09,1.44*01\r\n"
  ],
  [
    54.58798336982727,
    "$GPGSV,4,1,14,01,27,187,29,02,61,084,32,04,01,207,,07,55,287,27*7F\r\n"
  ],
  [
    54.588435888290405,
    "$GPGSV,4,2,14,08,72,006,29,09,08,236,24,10,09,073,10,14,03,296,*7C\r\n"
  ],
  [
    54.58886647224426,
    "$GPGSV,4,3,14,16,30,096,26,21,55,169,33,23,03,042,,26,03,113,*79\r\n"
  ],
  [
    54.589149475097656,
    "$GPGSV,4,4,14,27,41,048,,30,27,312,20*74\r\n"
  ],
  [
    54.58949017524719,
    "$GPGLL,3733.70211,N,12656.08132,E,002109.00,A,A*6C\r\n"
  ],
  [
    55.584980726242065,
    "$GPRMC,002110.00,A,3733.70174,N,12656.08195,E,1.959,126.25,230523,,,A*6D\r\n"
  ],
  [
    55.58554482460022,
    "$GPVTG,126.25,T,,M,1.959,N,3.628,K,A*34\r\n"
  ],
  [
    55.58603596687317,
    "$GPGGA,002110.00,3733.70174,N,12656.08195,E,1,08,1.09,42.6,M,18.4,M,,*61\r\n"
  ],
  [
    55.58646011352539,
    "$GPGSA,A,3,08,02,07,21,16,30,01,09,,,,,1.81,1.09,1.44*01\r\n"
  ],
  [
    55.58690357208252,
    "$GPGSV,4,1,14,01,27,187,28,02,61,084,31,04,01,207,,07,55,287,27*7D\r\n"
  ],
  [
    55.587372064590454,
    "$GPGSV,4,2,14,08,72,006,28,09,08,236,30,10,09,073,09,14,03,296,*70\r\n"
  ],
  [
    55.58780074119568,
    "$GPGSV,4,3,14,16,30,096,26,21,55,169,32,23,03,042,,26,03,113,*78\r\n"
  ],
  [
    55.58807373046875,
    "$GPGSV,4,4,14,27,41,048,,30,27,312,20*74\r\n"
  ],
  [
    55.588417291641235,
    "$GPGLL,3733.70174,N,12656.08195,E,002110.00,A,A*69\r\n"
  ],
  [
    56.593172550201416,
    "$GPRMC,002111.00,A,3733.70129,N,12656.08245,E,1.884,134.38,230523,,,A*64\r\n"
  ],
  [
    56.59351563453674,
    "$GPVTG,134.38,T,,M,1.884,N,3.490,K,A*3B\r\n"
  ],
  [
    56.59400272369385,
    "$GPGGA,002111.00,3733.70129,N,12656.08245,E,1,08,1.09,42.8,M,18.4,M,,*68\r\n"
  ],
  [
    56.594446420669556,
    "$GPGSA,A,3,08,02,07,21,16,30,01,09,,,,,1.81,1.09,1.44*01\r\n"
  ],
  [
    56.59489035606384,
    "$GPGSV,4,1,14,01,27,187,28,02,61,084,29,04,01,207,,07,55,287,25*76\r\n"
  ],
  [
    56.59534430503845,
    "$GPGSV,4,2,14,08,72,006,26,09,08,236,29,10,09,073,11,14,03,296,*7F\r\n"
  ],
  [
    56.59583258628845,
    "$GPGSV,4,3,14,16,30,096,24,21,55,169,29,23,03,042,,26,03,113,*70\r\n"
  ],
  [
    56.596110582351685,
    "$GPGSV,4,4,14,27,41,048,,30,27,312,20*74\r\n"
  ],
  [
    56.5964617729187,
    "$GPGLL,3733.70129,N,12656.08245,E,002111.00,A,A*6E\r\n"
  ],
  [
    57.589513301849365,
    "$GPRMC,002112.00,A,3733.70082,N,12656.08278,E,1.671,144.67,230523,,,A*60\r\n"
  ],
  [
    57.58986139297485,
    "$GPVTG,144.67,T,,M,1.671,N,3.094,K,A*32\r\n"
  ],
  [
    57.59044599533081,
    "$GPGGA,002112.00,3733.70082,N,12656.08278,E,1,08,1.09,42.9,M,18.4,M,,*64\r\n"
  ],
  [
    57.59084987640381,
    "$GPGSA,A,3,08,02,07,21,16,30,01,09,,,,,1.81,1.09,1.44*01\r\n"
  ],
  [
    57.59131360054016,
    "$GPGSV,4,1,14,01,27,187,28,02,61,084,33,04,01,207,,07,55,287,24*7C\r\n"
  ],
  [
    57.591803550720215,
    "$GPGSV,4,2,14,08,72,006,26,09,08,236,29,10,09,073,12,14,03,296,*7C\r\n"
  ],
  [
    57.59224033355713,
    "$GPGSV,4,3,14,16,30,096,23,21,55,169,30,23,03,042,,26,03,113,*7F\r\n"
  ],
  [
    57.59251689910889,
    "$GPGSV,4,4,14,27,41,048,,30,27,312,19*7E\r\n"
  ],
  [
    57.592857122421265,
    "$GPGLL,3733.70082,N,12656.08278,E,002112.00,A,A*63\r\n"
  ],
  [
    58.588574171066284,
    "$GPRMC,002113.00,A,3733.70034,N,12656.08320,E,1.812,149.15,230523,,,A*63\r\n"
  ],
  [
    58.58894109725952,
    "$GPVTG,149.15,T,,M,1.812,N,3.355,K,A*3F\r\n"
  ],
  [
    58.58954882621765,
    "$GPGGA,002113.00,3733.70034,N,12656.08320,E,1,08,1.09,42.9,M,18.4,M,,*64\r\n"
  ],
  [
    58.59001851081848,
    "$GPGSA,A,3,08,02,07,21,16,30,01,09,,,,,1.81,1.09,1.44*01\r\n"
  ],
  [
    58.59050941467285,
    "$GPGSV,4,1,14,01,27,187,27,02,61,084,32,04,01,207,,07,55,287,25*73\r\n"
  ],
  [
    58.59097194671631,
    "$GPGSV,4,2,14,08,72,006,27,09,08,236,28,10,09,073,13,14,03,296,*7D\r\n"
  ],
  [
    58.59142255783081,
    "$GPGSV,4,3,14,16,30,096,20,21,55,169,33,23,03,042,,26,03,113,*7F\r\n"
  ],
  [
    58.59170937538147,
    "$GPGSV,4,4,14,27,41,048,,30,27,312,18*7F\r\n"
  ],
  [
    58.59207773208618,
    "$GPGLL,3733.70034,N,12656.08320,E,002113.00,A,A*63\r\n"
  ],
  [
    59.590641021728516,
    "$GPRMC,002114.00,A,3733.69967,N,12656.08338,E,1.911,150.64,230523,,,A*66\r\n"
  ],
  [
    59.590980768203735,
    "$GPVTG,150.64,T,,M,1.911,N,3.540,K,A*31\r\n"
  ],
  [
    59.591577768325806,
    "$GPGGA,002114.00,3733.69967,N,12656.08338,E,1,08,1.09,43.2,M,18.4,M,,*67\r\n"
  ],
  [
    59.591960191726685,
    "$GPGSA,A,3,08,02,07,21,16,30,01,09,,,,,1.81,1.09,1.44*01\r\n"
  ],
  [
    59.592268228530884,
    "$GPGSV,4,1,14,01,27,187,27,02,61,084,31,04,01,207,,07,55,287,25*70\r\n"
  ],
  [
    59.59242105484009,
    "$GPGSV,4,2,14,08,72,006,28,09,08,236,27,10,09,073,13,14,03,296,*7D\r\n"
  ],
  [
    59.59256911277771,
    "$GPGSV,4,3,14,16,30,096,19,21,55,169,32,23,03,042,,26,03,113,*74\r\n"
  ],
  [
    59.59266471862793,
    "$GPGSV,4,4,14,27,41,048,,30,27,312,17*70\r\n"
  ],
  [
    59.5927836894989,
    "$GPGLL,3733.69967,N,12656.08338,E,002114.00,A,A*6A\r\n"
  ],
  [
    60.59059453010559,
    "$GPRMC,002115.00,A,3733.69913,N,12656.08367,E,1.850,148.06,230523,,,A*67\r\n"
  ],
  [
    60.590957164764404,
    "$GPVTG,148.06,T,,M,1.850,N,3.427,K,A*38\r\n"
  ],
  [
    60.591554164886475,
    "$GPGGA,002115.00,3733.69913,N,12656.08367,E,1,08,1.09,43.5,M,18.4,M,,*68\r\n"
  ],
  [
    60.592015504837036,
    "$GPGSA,A,3,08,02,07,21,16,30,01,09,,,,,1.81,1.09,1.44*01\r\n"
  ],
  [
    60.59249782562256,
    "$GPGSV,4,1,14,01,27,187,27,02,61,084,31,04,01,207,,07,55,287,24*71\r\n"
  ],
  [
    60.59293532371521,
    "$GPGSV,4,2,14,08,72,006,28,09,08,236,27,10,09,073,12,14,03,296,*7C\r\n"
  ],
  [
    60.59337544441223,
    "$GPGSV,4,3,14,16,30,096,20,21,55,169,32,23,03,042,,26,03,113,*7E\r\n"
  ],
  [
    60.59365177154541,
    "$GPGSV,4,4,14,27,41,048,,30,27,312,17*70\r\n"
  ],
  [
    60.5939884185791,
    "$GPGLL,3733.69913,N,12656.08367,E,002115.00,A,A*62\r\n"
  ],
  [
    61.589637994766235,
    "$GPRMC,002116.00,A,3733.69863,N,12656.08409,E,1.885,144.95,230523,,,A*63\r\n"
  ],
  [
    61.589980363845825,
    "$GPVTG,144.95,T,,M,1.885,N,3.491,K,A*3B\r\n"
  ],
  [
    61.59056091308594,
    "$GPGGA,002116.00,3733.69863,N,12656.08409,E,1,08,1.09,43.2,M,18.4,M,,*65\r\n"
  ],
  [
    61.591031074523926,
    "$GPGSA,A,3,08,02,07,21,16,30,01,09,,,,,1.81,1.09,1.44*01\r\n"
  ],
  [
    61.59150195121765,
    "$GPGSV,4,1,14,01,27,187,27,02,61,084,31,04,01,207,,07,55,287,26*73\r\n"
  ],
  [
    61.5919451713562,
    "$GPGSV,4,2,14,08,72,006,28,09,08,236,26,10,09,073,10,14,03,296,*7F\r\n"
  ],
  [
    61.59238409996033,
    "$GPGSV,4,3,14,16,30,096,21,21,55,169,32,23,03,042,,26,03,113,*7F\r\n"
  ],
  [
    61.592663288116455,
    "$GPGSV,4,4,14,27,41,048,,30,27,312,16*71\r\n"
  ],
  [
    61.593005657196045,
    "$GPGLL,3733.69863,N,12656.08409,E,002116.00,A,A*68\r\n"
  ],
  [
    62.57941555976868,
    "$GPRMC,002117.00,A,3733.69803,N,12656.08465,E,2.066,140.75,230523,,,A*62\r\n"
  ],
  [
    62.57991433143616,
    "$GPVTG,140.75,T,,M,2.066,N,3.825,K,A*34\r\n"
  ],
  [
    62.58090162277222,
    "$GPGGA,002117.00,3733.69803,N,12656.08465,E,1,08,1.09,43.1,M,18.4,M,,*6B\r\n"
  ],
  [
    62.58143472671509,
    "$GPGSA,A,3,08,02,07,21,16,30,01,09,,,,,1.81,1.09,1.44*01\r\n"
  ],
  [
    62.58188343048096,
    "$GPGSV,4,1,14,01,27,187,28,02,61,084,30,04,01,207,,07,55,287,26*7D\r\n"
  ],
  [
    62.58233833312988,
    "$GPGSV,4,2,14,08,72,006,27,09,08,236,26,10,09,073,08,14,03,296,*79\r\n"
  ],
  [
    62.582770586013794,
    "$GPGSV,4,3,14,16,30,096,20,21,55,169,32,23,03,042,,26,03,113,*7E\r\n"
  ],
  [
    62.58304834365845,
    "$GPGSV,4,4,14,27,41,048,,30,27,312,16*71\r\n"
  ],
  [
    62.583396196365356,
    "$GPGLL,3733.69803,N,12656.08465,E,002117.00,A,A*65\r\n"
  ],
  [
    63.59085416793823,
    "$GPRMC,002118.00,A,3733.69758,N,12656.08516,E,2.032,139.09,230523,,,A*6D\r\n"
  ],
  [
    63.59124231338501,
    "$GPVTG,139.09,T,,M,2.032,N,3.763,K,A*3D\r\n"
  ],
  [
    63.591822385787964,
    "$GPGGA,002118.00,3733.69758,N,12656.08516,E,1,08,1.09,42.9,M,18.4,M,,*69\r\n"
  ],
  [
    63.59222745895386,
    "$GPGSA,A,3,08,02,07,21,16,30,01,09,,,,,1.81,1.09,1.44*01\r\n"
  ],
  [
    63.59267020225525,
    "$GPGSV,4,1,14,01,27,187,32,02,61,084,33,04,01,207,,07,55,287,26*75\r\n"
  ],
  [
    63.593101024627686,
    "$GPGSV,4,2,14,08,72,006,30,09,08,236,26,10,09,073,,14,03,296,*77\r\n"
  ],
  [
    63.59365224838257,
    "$GPGSV,4,3,14,16,30,096,19,21,55,169,27,23,03,042,,26,03,113,*70\r\n"
  ],
  [
    63.593870639801025,
    "$GPGSV,4,4,14,27,41,048,,30,27,312,16*71\r\n"
  ],
  [
    63.59399199485779,
    "$GPGLL,3733.69758,N,12656.08516,E,002118.00,A,A*6E\r\n"
  ],
  [
    64.58151817321777,
    "$GPRMC,002119.00,A,3733.69717,N,12656.08558,E,1.918,138.24,230523,,,A*61\r\n"
  ],
  [
    64.58183741569519,
    "$GPVTG,138.24,T,,M,1.918,N,3.553,K,A*30\r\n"
  ],
  [
    64.5823884010315,
    "$GPGGA,002119.00,3733.69717,N,12656.08558,E,1,08,1.09,42.7,M,18.4,M,,*67\r\n"
  ],
  [
    64.58280515670776,
    "$GPGSA,A,3,08,02,07,21,16,30,01,09,,,,,1.81,1.09,1.44*01\r\n"
  ],
  [
    64.58327722549438,
    "$GPGSV,4,1,14,01,27,187,27,02,61,084,30,04,01,207,,07,55,287,25*71\r\n"
  ],
  [
    64.58372926712036,
    "$GPGSV,4,2,14,08,72,006,30,09,08,236,25,10,09,073,,14,03,296,*74\r\n"
  ],
  [
    64.58418536186218,
    "$GPGSV,4,3,14,16,30,096,20,21,55,169,12,23,03,042,,26,03,113,*7C\r\n"
  ],
  [
    64.58450746536255,
    "$GPGSV,4,4,14,27,41,048,,30,27,312,15*72\r\n"
  ],
  [
    64.58486223220825,
    "$GPGLL,3733.69717,N,12656.08558,E,002119.00,A,A*6E\r\n"
  ],
  [
    65.59266996383667,
    "$GPRMC,002120.00,A,3733.69669,N,12656.08605,E,2.107,137.07,230523,,,A*63\r\n"
  ],
  [
    65.59302854537964,
    "$GPVTG,137.07,T,,M,2.107,N,3.901,K,A*30\r\n"
  ],
  [
    65.59362649917603,
    "$GPGGA,002120.00,3733.69669,N,12656.08605,E,1,08,1.09,42.6,M,18.4,M,,*6F\r\n"
  ],
  [
    65.59400677680969,
    "$GPGSA,A,3,08,02,07,21,16,30,01,09,,,,,1.81,1.09,1.44*01\r\n"
  ],
  [
    65.59446048736572,
    "$GPGSV,4,1,14,01,27,187,25,02,61,084,29,04,01,207,,07,55,287,23*7D\r\n"
  ],
  [
    65.5948736667633,
    "$GPGSV,4,2,14,08,72,006,23,09,08,236,23,10,09,073,,14,03,296,*70\r\n"
  ],
  [
    65.59529185295105,
    "$GPGSV,4,3,14,16,30,096,18,21,55,169,28,23,03,042,,26,03,113,*7E\r\n"
  ],
  [
    65.5955581665039,
    "$GPGSV,4,4,14,27,41,048,,30,27,312,13*74\r\n"
  ],
  [
    65.59588599205017,
    "$GPGLL,3733.69669,N,12656.08605,E,002120.00,A,A*67\r\n"
  ],
  [
    66.592613697052,
