[
  [
    0.33871006965637207,
    "$GPRMC,003000.00,A,3733.67034,N,12656.14073,E,0.285,,230523,,,A*7C\r\n"
  ],
  [
    0.33907413482666016,
    "$GPVTG,,T,,M,0.285,N,0.528,K,A*23\r\n"
  ],
  [
    0.3396446704864502,
    "$GPGGA,003000.00,3733.67034,N,12656.14073,E,1,04,3.06,47.7,M,18.4,M,,*62\r\n"
  ],
  [
    0.3400611877441406,
    "$GPGSA,A,3,08,07,27,16,,,,,,,,,6.37,3.06,5.59*01\r\n"
  ],
  [
    0.34055423736572266,
    "$GPGSV,4,1,13,01,32,187,,02,60,075,,07,56,280,21,08,69,015,24*7E\r\n"
  ],
  [
    0.3410320281982422,
    "$GPGSV,4,2,13,09,05,233,,10,10,070,,14,06,298,,16,27,099,22*76\r\n"
  ],
  [
    0.3415181636810303,
    "$GPGSV,4,3,13,21,59,167,,23,02,039,,26,00,115,,27,37,050,22*7F\r\n"
  ],
  [
    0.34178996086120605,
    "$GPGSV,4,4,13,30,30,309,*41\r\n"
  ],
  [
    0.342193603515625,
    "$GPGLL,3733.67034,N,12656.14073,E,003000.00,A,A*6F\r\n"
  ],
  [
    0.4861154556274414,
    "$GPTXT,01,01,02,u-blox ag - www.u-blox.com*50\r\n"
  ],
  [
    0.4866464138031006,
    "$GPTXT,01,01,02,HW  UBX-G70xx   00070000 *77\r\n"
  ],
  [
    0.4872126579284668,
    "$GPTXT,01,01,02,ROM CORE 1.00 (59842) Jun 27 2012 17:43:52*59\r\n"
  ],
  [
    0.48754119873046875,
    "$GPTXT,01,01,02,PROTVER 14.00*1E\r\n"
  ],
  [
    0.48796772956848145,
    "$GPTXT,01,01,02,ANTSUPERV=AC SD PDoS SR*20\r\n"
  ],
  [
    0.48825597763061523,
    "$GPTXT,01,01,02,ANTSTATUS=OK*3B\r\n"
  ],
  [
    0.4888162612915039,
    "$GPTXT,01,01,02,LLC FFFFFFFF-FFFFFFED-FFFFFFFF-FFFFFFFF-FFFFFFFD*2D\r\n"
  ],
  [
    1.343252182006836,
    "$GPRMC,003001.00,A,3733.67015,N,12656.14074,E,0.289,,230523,,,A*75\r\n"
  ],
  [
    1.3435540199279785,
    "$GPVTG,,T,,M,0.289,N,0.536,K,A*20\r\n"
  ],
  [
    1.3440790176391602,
    "$GPGGA,003001.00,3733.67015,N,12656.14074,E,1,04,3.06,47.5,M,18.4,M,,*65\r\n"
  ],
  [
    1.3444287776947021,
    "$GPGSA,A,3,08,07,27,16,,,,,,,,,6.37,3.06,5.59*01\r\n"
  ],
  [
    1.3449020385742188,
    "$GPGSV,4,1,13,01,32,187,,02,60,075,02,07,56,280,20,08,69,015,24*7D\r\n"
  ],
  [
    1.34531831741333,
    "$GPGSV,4,2,13,09,05,233,,10,10,070,,14,06,298,,16,27,099,22*76\r\n"
  ],
  [
    1.34574556350708,
    "$GPGSV,4,3,13,21,59,167,,23,02,039,,26,00,115,,27,37,050,21*7C\r\n"
  ],
  [
    1.3459396362304688,
    "$GPGSV,4,4,13,30,30,309,*41\r\n"
  ],
  [
    1.3462793827056885,
    "$GPGLL,3733.67015,N,12656.14074,E,003001.00,A,A*6A\r\n"
  ],
  [
    2.3457233905792236,
    "$GPRMC,003002.00,A,3733.67023,N,12656.13999,E,0.604,,230523,,,A*7F\r\n"
  ],
  [
    2.3459885120391846,
    "$GPVTG,,T,,M,0.604,N,1.119,K,A*29\r\n"
  ],
  [
    2.3461971282958984,
    "$GPGGA,003002.00,3733.67023,N,12656.13999,E,1,04,3.06,47.2,M,18.4,M,,*69\r\n"
  ],
  [
    2.3463454246520996,
    "$GPGSA,A,3,08,07,27,16,,,,,,,,,6.37,3.06,5.59*01\r\n"
  ],
  [
    2.3465335369110107,
    "$GPGSV,4,1,13,01,32,187,,02,60,075,07,07,56,280,18,08,69,015,25*72\r\n"
  ],
  [
    2.3468220233917236,
    "$GPGSV,4,2,13,09,05,233,,10,10,070,,14,06,298,,16,27,099,22*76\r\n"
  ],
  [
    2.3472094535827637,
    "$GPGSV,4,3,13,21,59,167,,23,02,039,,26,00,115,,27,37,050,21*7C\r\n"
  ],
  [
    2.34739089012146,
    "$GPGSV,4,4,13,30,30,309,*41\r\n"
  ],
  [
    2.3477871417999268,
    "$GPGLL,3733.67023,N,12656.13999,E,003002.00,A,A*61\r\n"
  ],
  [
    3.345551013946533,
    "$GPRMC,003003.00,A,3733.66953,N,12656.13913,E,1.029,,230523,,,A*7B\r\n"
  ],
  [
    3.3458750247955322,
    "$GPVTG,,T,,M,1.029,N,1.907,K,A*26\r\n"
  ],
  [
    3.34643816947937,
    "$GPGGA,003003.00,3733.66953,N,12656.13913,E,1,04,3.06,46.8,M,18.4,M,,*6E\r\n"
  ],
  [
    3.3467931747436523,
    "$GPGSA,A,3,08,07,27,16,,,,,,,,,6.38,3.06,5.59*0E\r\n"
  ],
  [
    3.3472394943237305,
    "$GPGSV,4,1,13,01,32,187,,02,60,075,11,07,56,280,14,08,69,015,26*7A\r\n"
  ],
  [
    3.347663640975952,
    "$GPGSV,4,2,13,09,05,233,,10,10,070,,14,06,298,,16,27,099,22*76\r\n"
  ],
  [
    3.3480775356292725,
    "$GPGSV,4,3,13,21,59,167,,23,02,039,,26,00,115,,27,37,050,20*7D\r\n"
  ],
  [
    3.34826922416687,
    "$GPGSV,4,4,13,30,30,309,*41\r\n"
  ],
  [
    3.3486058712005615,
    "$GPGLL,3733.66953,N,12656.13913,E,003003.00,A,A*6D\r\n"
  ],
  [
    4.347298622131348,
    "$GPRMC,003004.00,A,3733.66847,N,12656.14027,E,0.760,,230523,,,A*7A\r\n"
  ],
  [
    4.347601413726807,
    "$GPVTG,,T,,M,0.760,N,1.408,K,A*2F\r\n"
  ],
  [
    4.348178386688232,
    "$GPGGA,003004.00,3733.66847,N,12656.14027,E,1,03,3.45,56.5,M,18.4,M,,*68\r\n"
  ],
  [
    4.34852933883667,
    "$GPGSA,A,2,08,27,16,,,,,,,,,,3.59,3.45,1.00*05\r\n"
  ],
  [
    4.348981857299805,
    "$GPGSV,4,1,13,01,32,187,,02,60,075,11,07,56,280,12,08,69,015,25*7F\r\n"
  ],
  [
    4.349396228790283,
    "$GPGSV,4,2,13,09,05,233,,10,10,070,,14,06,298,,16,27,099,22*76\r\n"
  ],
  [
    4.349840402603149,
    "$GPGSV,4,3,13,21,59,167,,23,02,039,,26,00,115,,27,37,050,20*7D\r\n"
  ],
  [
    4.35005259513855,
    "$GPGSV,4,4,13,30,30,309,20*43\r\n"
  ],
  [
    4.350390195846558,
    "$GPGLL,3733.66847,N,12656.14027,E,003004.00,A,A*67\r\n"
  ],
  [
    5.347898006439209,
    "$GPRMC,003005.00,A,3733.66800,N,12656.13980,E,0.863,,230523,,,A*77\r\n"
  ],
  [
    5.348194360733032,
    "$GPVTG,,T,,M,0.863,N,1.599,K,A*2A\r\n"
  ],
  [
    5.348739147186279,
    "$GPGGA,003005.00,3733.66800,N,12656.13980,E,1,04,3.06,56.4,M,18.4,M,,*68\r\n"
  ],
  [
    5.3491432666778564,
    "$GPGSA,A,3,08,07,27,16,,,,,,,,,6.38,3.06,5.59*0E\r\n"
  ],
  [
    5.34959077835083,
    "$GPGSV,4,1,13,01,32,187,,02,60,075,12,07,56,280,13,08,69,015,25*7D\r\n"
  ],
  [
    5.3500096797943115,
    "$GPGSV,4,2,13,09,05,233,,10,10,070,,14,06,298,,16,27,099,23*77\r\n"
  ],
  [
    5.350420951843262,
    "$GPGSV,4,3,13,21,59,167,,23,02,039,,26,00,115,,27,37,050,20*7D\r\n"
  ],
  [
    5.350629091262817,
    "$GPGSV,4,4,13,30,30,309,19*49\r\n"
  ],
  [
    5.350969552993774,
    "$GPGLL,3733.66800,N,12656.13980,E,003005.00,A,A*66\r\n"
  ],
  [
    6.350052833557129,
    "$GPRMC,003006.00,A,3733.66839,N,12656.13950,E,0.471,,230523,,,A*7C\r\n"
  ],
  [
    6.3502583503723145,
    "$GPVTG,,T,,M,0.471,N,0.872,K,A*2C\r\n"
  ],
  [
    6.350423097610474,
    "$GPGGA,003006.00,3733.66839,N,12656.13950,E,1,05,2.49,55.9,M,18.4,M,,*69\r\n"
  ],
  [
    6.350545644760132,
    "$GPGSA,A,3,08,02,07,27,16,,,,,,,,4.42,2.49,3.64*01\r\n"
  ],
  [
    6.350714445114136,
    "$GPGSV,4,1,13,01,32,187,,02,60,075,14,07,56,280,16,08,69,015,26*7D\r\n"
  ],
  [
    6.350861310958862,
    "$GPGSV,4,2,13,09,05,233,,10,10,070,,14,06,298,19,16,27,099,26*7A\r\n"
  ],
  [
    6.351004362106323,
    "$GPGSV,4,3,13,21,59,167,,23,02,039,,26,00,115,,27,37,050,22*7F\r\n"
  ],
  [
    6.351074457168579,
    "$GPGSV,4,4,13,30,30,309,20*43\r\n"
  ],
  [
    6.351191282272339,
    "$GPGLL,3733.66839,N,12656.13950,E,003006.00,A,A*62\r\n"
  ],
  [
    7.340328931808472,
    "$GPRMC,003007.00,A,3733.66803,N,12656.13867,E,0.709,,230523,,,A*7D\r\n"
  ],
  [
    7.34066367149353,
    "$GPVTG,,T,,M,0.709,N,1.314,K,A*2A\r\n"
  ],
  [
    7.341199636459351,
    "$GPGGA,003007.00,3733.66803,N,12656.13867,E,1,06,2.00,55.1,M,18.4,M,,*62\r\n"
  ],
  [
    7.341565370559692,
    "$GPGSA,A,3,08,02,07,27,16,30,,,,,,,3.01,2.00,2.24*0A\r\n"
  ],
  [
    7.342013120651245,
    "$GPGSV,4,1,13,01,32,187,,02,60,075,16,07,56,280,17,08,69,015,28*70\r\n"
  ],
  [
    7.34243631362915,
    "$GPGSV,4,2,13,09,05,233,,10,10,070,,14,06,298,19,16,27,099,27*7B\r\n"
  ],
  [
    7.3428544998168945,
    "$GPGSV,4,3,13,21,59,167,,23,02,039,,26,00,115,,27,37,050,22*7F\r\n"
  ],
  [
    7.34306001663208,
    "$GPGSV,4,4,13,30,30,309,20*43\r\n"
  ],
  [
    7.3433997631073,
    "$GPGLL,3733.66803,N,12656.13867,E,003007.00,A,A*6F\r\n"
  ],
  [
    8.352651596069336,
    "$GPRMC,003008.00,A,3733.66861,N,12656.13824,E,0.783,,230523,,,A*73\r\n"
  ],
  [
    8.352942705154419,
    "$GPVTG,,T,,M,0.783,N,1.451,K,A*2E\r\n"
  ],
  [
    8.353467464447021,
    "$GPGGA,003008.00,3733.66861,N,12656.13824,E,1,06,2.00,54.4,M,18.4,M,,*6A\r\n"
  ],
  [
    8.353878736495972,
    "$GPGSA,A,3,08,02,07,27,16,30,,,,,,,3.01,2.00,2.24*0A\r\n"
  ],
  [
    8.354308843612671,
    "$GPGSV,4,1,13,01,32,187,,02,60,075,19,07,56,280,16,08,69,015,29*7F\r\n"
  ],
  [
    8.354721784591675,
    "$GPGSV,4,2,13,09,05,233,,10,10,070,,14,06,298,18,16,27,099,28*75\r\n"
  ],
  [
    8.355116128921509,
    "$GPGSV,4,3,13,21,59,167,,23,02,039,,26,00,115,,27,37,050,21*7C\r\n"
  ],
  [
    8.35531234741211,
    "$GPGSV,4,4,13,30,30,309,20*43\r\n"
  ],
  [
    8.355640888214111,
    "$GPGLL,3733.66861,N,12656.13824,E,003008.00,A,A*63\r\n"
  ],
  [
    9.345012187957764,
    "$GPRMC,003009.00,A,3733.66971,N,12656.13837,E,0.089,,230523,,,A*7D\r\n"
  ],
  [
    9.34531283378601,
    "$GPVTG,,T,,M,0.089,N,0.165,K,A*20\r\n"
  ],
  [
    9.345880031585693,
    "$GPGGA,003009.00,3733.66971,N,12656.13837,E,1,06,2.00,53.7,M,18.4,M,,*6D\r\n"
  ],
  [
    9.3462495803833,
    "$GPGSA,A,3,08,02,07,27,16,30,,,,,,,3.01,2.00,2.24*0A\r\n"
  ],
  [
    9.346693754196167,
    "$GPGSV,4,1,13,01,32,187,,02,60,075,17,07,56,280,22,08,69,015,20*7F\r\n"
  ],
  [
    9.347122192382812,
    "$GPGSV,4,2,13,09,05,233,,10,10,070,,14,06,298,17,16,27,099,25*77\r\n"
  ],
  [
    9.34753680229187,
    "$GPGSV,4,3,13,21,59,167,,23,02,039,,26,00,115,,27,37,050,20*7D\r\n"
  ],
  [
    9.347745895385742,
    "$GPGSV,4,4,13,30,30,309,20*43\r\n"
  ],
  [
    9.348085165023804,
    "$GPGLL,3733.66971,N,12656.13837,E,003009.00,A,A*60\r\n"
  ],
  [
    10.352189064025879,
    "$GPRMC,003010.00,A,3733.67035,N,12656.13856,E,0.433,,230523,,,A*7F\r\n"
  ],
  [
    10.352308988571167,
    "$GPVTG,,T,,M,0.433,N,0.801,K,A*2E\r\n"
  ],
  [
    10.352515697479248,
    "$GPGGA,003010.00,3733.67035,N,12656.13856,E,1,06,2.00,53.1,M,18.4,M,,*6C\r\n"
  ],
  [
    10.352689743041992,
    "$GPGSA,A,3,08,02,07,27,16,30,,,,,,,3.01,2.00,2.24*0A\r\n"
  ],
  [
    10.352877616882324,
    "$GPGSV,4,1,13,01,32,187,,02,60,075,15,07,56,280,22,08,69,015,19*77\r\n"
  ],
  [
    10.353059768676758,
    "$GPGSV,4,2,13,09,05,233,,10,10,070,,14,06,298,15,16,27,099,21*71\r\n"
  ],
  [
    10.35323715209961,
    "$GPGSV,4,3,13,21,59,167,,23,02,039,,26,00,115,,27,37,050,18*76\r\n"
  ],
  [
    10.35332727432251,
    "$GPGSV,4,4,13,30,30,309,18*48\r\n"
  ],
  [
    10.35347294807434,
    "$GPGLL,3733.67035,N,12656.13856,E,003010.00,A,A*67\r\n"
  ],
  [
    11.353461742401123,
    "$GPRMC,003011.00,A,3733.67052,N,12656.13796,E,0.352,,230523,,,A*7C\r\n"
  ],
  [
    11.353781700134277,
    "$GPVTG,,T,,M,0.352,N,0.652,K,A*26\r\n"
  ],
  [
    11.354331731796265,
    "$GPGGA,003011.00,3733.67052,N,12656.13796,E,1,06,2.00,52.8,M,18.4,M,,*67\r\n"
  ],
  [
    11.354705572128296,
    "$GPGSA,A,3,08,02,07,27,16,30,,,,,,,3.01,2.00,2.24*0A\r\n"
  ],
  [
    11.355154037475586,
    "$GPGSV,4,1,13,01,32,187,,02,60,075,12,07,56,280,22,08,69,015,19*70\r\n"
  ],
  [
    11.355586051940918,
    "$GPGSV,4,2,13,09,05,233,,10,10,070,,14,06,298,14,16,27,099,15*77\r\n"
  ],
  [
    11.356017112731934,
    "$GPGSV,4,3,13,21,59,167,,23,02,039,,26,00,115,,27,37,050,15*7B\r\n"
  ],
  [
    11.356226682662964,
    "$GPGSV,4,4,13,30,30,309,15*45\r\n"
  ],
  [
    11.356573343276978,
    "$GPGLL,3733.67052,N,12656.13796,E,003011.00,A,A*64\r\n"
  ],
  [
    12.345349788665771,
    "$GPRMC,003012.00,A,3733.67029,N,12656.13749,E,0.521,,230523,,,A*73\r\n"
  ],
  [
    12.34567666053772,
    "$GPVTG,,T,,M,0.521,N,0.964,K,A*2E\r\n"
  ],
  [
    12.346254587173462,
    "$GPGGA,003012.00,3733.67029,N,12656.13749,E,1,06,2.00,52.6,M,18.4,M,,*64\r\n"
  ],
  [
    12.346672534942627,
    "$GPGSA,A,3,08,02,07,27,16,30,,,,,,,3.01,2.00,2.24*0A\r\n"
  ],
  [
    12.34710955619812,
    "$GPGSV,4,1,13,01,32,187,,02,60,075,10,07,56,280,20,08,69,015,18*71\r\n"
  ],
  [
    12.347530603408813,
    "$GPGSV,4,2,13,09,05,233,,10,10,070,,14,06,298,12,16,27,099,15*71\r\n"
  ],
  [
    12.347930908203125,
    "$GPGSV,4,3,13,21,60,167,,23,02,039,,26,00,115,,27,37,050,12*76\r\n"
  ],
  [
    12.348125696182251,
    "$GPGSV,4,4,13,30,30,309,13*43\r\n"
  ],
  [
    12.348448514938354,
    "$GPGLL,3733.67029,N,12656.13749,E,003012.00,A,A*69\r\n"
  ],
  [
    13.347177743911743,
    "$GPRMC,003013.00,A,3733.66981,N,12656.13686,E,0.818,,230523,,,A*7D\r\n"
  ],
  [
    13.347476959228516,
    "$GPVTG,,T,,M,0.818,N,1.515,K,A*22\r\n"
  ],
  [
    13.347997665405273,
    "$GPGGA,003013.00,3733.66981,N,12656.13686,E,1,05,2.91,52.3,M,18.4,M,,*63\r\n"
  ],
  [
    13.34833836555481,
    "$GPGSA,A,3,08,02,07,16,30,,,,,,,,3.69,2.91,2.28*05\r\n"
  ],
  [
    13.348778247833252,
    "$GPGSV,4,1,13,01,32,187,,02,60,075,11,07,56,280,19,08,69,015,18*7A\r\n"
  ],
  [
    13.349204301834106,
    "$GPGSV,4,2,13,09,05,233,,10,10,070,,14,06,298,12,16,27,099,18*7C\r\n"
  ],
  [
    13.349605083465576,
    "$GPGSV,4,3,13,21,60,167,,23,02,038,,26,00,115,,27,37,050,*74\r\n"
  ],
  [
    13.349815607070923,
    "$GPGSV,4,4,13,30,30,309,13*43\r\n"
  ],
  [
    13.350158929824829,
    "$GPGLL,3733.66981,N,12656.13686,E,003013.00,A,A*60\r\n"
  ],
  [
    14.350850105285645,
    "$GPRMC,003014.00,A,3733.66998,N,12656.13662,E,0.624,,230523,,,A*79\r\n"
  ],
  [
    14.351148128509521,
    "$GPVTG,,T,,M,0.624,N,1.156,K,A*20\r\n"
  ],
  [
    14.35166883468628,
    "$GPGGA,003014.00,3733.66998,N,12656.13662,E,1,05,2.91,51.9,M,18.4,M,,*6F\r\n"
  ],
  [
    14.352023363113403,
    "$GPGSA,A,3,08,02,07,16,30,,,,,,,,3.69,2.91,2.28*05\r\n"
  ],
  [
    14.352484703063965,
    "$GPGSV,4,1,13,01,32,187,,02,60,075,11,07,56,280,27,08,69,015,29*75\r\n"
  ],
  [
    14.352916240692139,
    "$GPGSV,4,2,13,09,05,233,,10,10,070,,14,06,298,15,16,27,099,20*70\r\n"
  ],
  [
    14.35333800315857,
    "$GPGSV,4,3,13,21,60,167,,23,02,038,,26,00,115,,27,37,050,17*72\r\n"
  ],
  [
    14.353541135787964,
    "$GPGSV,4,4,13,30,30,309,18*48\r\n"
  ],
  [
    14.353888988494873,
    "$GPGLL,3733.66998,N,12656.13662,E,003014.00,A,A*65\r\n"
  ],
  [
    15.342074871063232,
    "$GPRMC,003015.00,A,3733.67017,N,12656.13664,E,0.474,,230523,,,A*76\r\n"
  ],
  [
    15.34239649772644,
    "$GPVTG,,T,,M,0.474,N,0.877,K,A*2C\r\n"
  ],
  [
    15.342998504638672,
    "$GPGGA,003015.00,3733.67017,N,12656.13664,E,1,05,2.91,51.5,M,18.4,M,,*6B\r\n"
  ],
  [
    15.343407154083252,
    "$GPGSA,A,3,08,02,07,16,30,,,,,,,,3.69,2.91,2.28*05\r\n"
  ],
  [
    15.343883991241455,
    "$GPGSV,4,1,13,01,32,187,,02,60,075,15,07,56,280,27,08,69,015,29*71\r\n"
  ],
  [
    15.3443284034729,
    "$GPGSV,4,2,13,09,05,233,,10,10,070,,14,06,298,16,16,27,099,25*76\r\n"
  ],
  [
    15.344771146774292,
    "$GPGSV,4,3,13,21,60,167,,23,02,038,,26,00,115,,27,37,050,20*76\r\n"
  ],
  [
    15.344992876052856,
    "$GPGSV,4,4,13,30,30,309,20*43\r\n"
  ],
  [
    15.345346927642822,
    "$GPGLL,3733.67017,N,12656.13664,E,003015.00,A,A*6D\r\n"
  ],
  [
    16.351454734802246,
    "$GPRMC,003016.00,A,3733.67191,N,12656.13755,E,0.946,,230523,,,A*75\r\n"
  ],
  [
    16.35177969932556,
    "$GPVTG,,T,,M,0.946,N,1.753,K,A*28\r\n"
  ],
  [
    16.352339267730713,
    "$GPGGA,003016.00,3733.67191,N,12656.13755,E,1,05,2.90,51.0,M,18.4,M,,*60\r\n"
  ],
  [
    16.352771759033203,
    "$GPGSA,A,3,08,02,07,16,30,,,,,,,,3.69,2.90,2.28*04\r\n"
  ],
  [
    16.353266954421997,
    "$GPGSV,4,1,13,01,32,187,,02,60,075,15,07,56,280,28,08,69,015,27*70\r\n"
  ],
  [
    16.35369110107422,
    "$GPGSV,4,2,13,09,05,233,,10,10,070,,14,06,298,17,16,27,099,24*76\r\n"
  ],
  [
    16.3541042804718,
    "$GPGSV,4,3,13,21,60,167,,23,02,038,,26,00,115,,27,37,050,20*76\r\n"
  ],
  [
    16.35430669784546,
    "$GPGSV,4,4,13,30,30,309,23*40\r\n"
  ],
  [
    16.354652404785156,
    "$GPGLL,3733.67191,N,12656.13755,E,003016.00,A,A*62\r\n"
  ],
  [
    17.353277444839478,
    "$GPRMC,003017.00,A,3733.67335,N,12656.13783,E,1.726,,230523,,,A*7A\r\n"
  ],
  [
    17.35359477996826,
    "$GPVTG,,T,,M,1.726,N,3.196,K,A*2C\r\n"
  ],
  [
    17.354165077209473,
    "$GPGGA,003017.00,3733.67335,N,12656.13783,E,1,06,2.00,50.7,M,18.4,M,,*6A\r\n"
  ],
  [
    17.35453224182129,
    "$GPGSA,A,3,08,02,07,27,16,30,,,,,,,3.00,2.00,2.24*0B\r\n"
  ],
  [
    17.354978322982788,
    "$GPGSV,4,1,13,01,32,187,,02,60,075,16,07,56,280,19,08,69,015,27*71\r\n"
  ],
  [
    17.355404376983643,
    "$GPGSV,4,2,13,09,05,233,,10,10,070,,14,06,298,17,16,27,099,25*77\r\n"
  ],
  [
    17.35582423210144,
    "$GPGSV,4,3,13,21,60,167,,23,02,038,,26,00,115,,27,37,051,20*77\r\n"
  ],
  [
    17.35603094100952,
    "$GPGSV,4,4,13,30,30,309,22*41\r\n"
  ],
  [
    17.35637593269348,
    "$GPGLL,3733.67335,N,12656.13783,E,003017.00,A,A*64\r\n"
  ],
  [
    18.353142023086548,
    "$GPRMC,003018.00,A,3733.67401,N,12656.13767,E,1.752,,230523,,,A*7C\r\n"
  ],
  [
    18.353455066680908,
    "$GPVTG,,T,,M,1.752,N,3.245,K,A*22\r\n"
  ],
  [
    18.35395860671997,
    "$GPGGA,003018.00,3733.67401,N,12656.13767,E,1,06,2.00,50.4,M,18.4,M,,*6C\r\n"
  ],
  [
    18.35433554649353,
    "$GPGSA,A,3,08,02,07,27,16,30,,,,,,,3.00,2.00,2.24*0B\r\n"
  ],
  [
    18.354767084121704,
    "$GPGSV,4,1,13,01,32,187,,02,60,075,16,07,56,280,22,08,69,015,26*78\r\n"
  ],
  [
    18.355178594589233,
    "$GPGSV,4,2,13,09,05,233,,10,10,070,,14,06,298,19,16,27,099,25*79\r\n"
  ],
  [
    18.355576992034912,
    "$GPGSV,4,3,13,21,60,167,,23,02,038,,26,00,115,,27,37,051,19*7D\r\n"
  ],
  [
    18.355787754058838,
    "$GPGSV,4,4,13,30,30,309,22*41\r\n"
  ],
  [
    18.35614585876465,
    "$GPGLL,3733.67401,N,12656.13767,E,003018.00,A,A*61\r\n"
  ],
  [
    19.348175048828125,
    "$GPRMC,003019.00,A,3733.67337,N,12656.13749,E,1.029,,230523,,,A*78\r\n"
  ],
  [
    19.3484845161438,
    "$GPVTG,,T,,M,1.029,N,1.906,K,A*27\r\n"
  ],
  [
    19.349090576171875,
    "$GPGGA,003019.00,3733.67337,N,12656.13749,E,1,06,2.00,50.2,M,18.4,M,,*65\r\n"
  ],
  [
    19.349511861801147,
    "$GPGSA,A,3,08,02,07,27,16,30,,,,,,,3.00,2.00,2.24*0B\r\n"
  ],
  [
    19.35000777244568,
    "$GPGSV,4,1,13,01,32,187,,02,60,075,15,07,56,280,25,08,69,015,25*7F\r\n"
  ],
  [
    19.350462675094604,
    "$GPGSV,4,2,13,09,05,233,,10,10,070,,14,06,298,19,16,27,099,24*78\r\n"
  ],
  [
    19.350904941558838,
    "$GPGSV,4,3,13,21,60,167,,23,02,038,,26,00,115,,27,37,051,20*77\r\n"
  ],
  [
    19.351109981536865,
    "$GPGSV,4,4,13,30,30,309,21*42\r\n"
  ],
  [
    19.351450443267822,
    "$GPGLL,3733.67337,N,12656.13749,E,003019.00,A,A*6E\r\n"
  ],
  [
    20.349292516708374,
    "$GPRMC,003020.00,A,3733.67279,N,12656.13676,E,0.651,,230523,,,A*7C\r\n"
  ],
  [
    20.349604845046997,
    "$GPVTG,,T,,M,0.651,N,1.206,K,A*24\r\n"
  ],
  [
    20.350141048431396,
    "$GPGGA,003020.00,3733.67279,N,12656.13676,E,1,06,2.00,49.9,M,18.4,M,,*6A\r\n"
  ],
  [
    20.350526094436646,
    "$GPGSA,A,3,08,02,07,27,16,30,,,,,,,3.00,2.00,2.24*0B\r\n"
  ],
  [
    20.350990295410156,
    "$GPGSV,4,1,13,01,32,187,,02,60,075,15,07,56,280,27,08,69,015,24*7C\r\n"
  ],
  [
    20.351401567459106,
    "$GPGSV,4,2,13,09,05,233,,10,10,070,,14,06,298,,16,27,099,23*77\r\n"
  ],
  [
    20.351823091506958,
    "$GPGSV,4,3,13,21,60,167,,23,02,038,,26,00,115,,27,37,051,20*77\r\n"
  ],
  [
    20.352025985717773,
    "$GPGSV,4,4,13,30,30,309,23*40\r\n"
  ],
  [
    20.352361917495728,
    "$GPGLL,3733.67279,N,12656.13676,E,003020.00,A,A*62\r\n"
  ],
  [
    21.350053071975708,
    "$GPRMC,003021.00,A,3733.67309,N,12656.13592,E,1.511,,230523,,,A*74\r\n"
  ],
  [
    21.35036301612854,
    "$GPVTG,,T,,M,1.511,N,2.799,K,A*22\r\n"
  ],
  [
    21.35093593597412,
    "$GPGGA,003021.00,3733.67309,N,12656.13592,E,1,06,2.00,49.6,M,18.4,M,,*6B\r\n"
  ],
  [
    21.351299047470093,
    "$GPGSA,A,3,08,02,07,27,16,30,,,,,,,3.00,2.00,2.24*0B\r\n"
  ],
  [
    21.351743459701538,
    "$GPGSV,4,1,13,01,32,187,,02,60,075,13,07,56,280,29,08,69,015,24*74\r\n"
  ],
  [
    21.352176904678345,
    "$GPGSV,4,2,13,09,05,233,,10,10,070,,14,06,298,17,16,27,099,22*70\r\n"
  ],
  [
    21.352607488632202,
    "$GPGSV,4,3,13,21,60,167,01,23,02,038,,26,00,115,,27,37,051,17*72\r\n"
  ],
  [
    21.35282254219055,
    "$GPGSV,4,4,13,30,30,309,21*42\r\n"
  ],
  [
    21.353166818618774,
    "$GPGLL,3733.67309,N,12656.13592,E,003021.00,A,A*6C\r\n"
  ],
  [
    22.349170923233032,
    "$GPRMC,003022.00,A,3733.67375,N,12656.13537,E,2.132,,230523,,,A*75\r\n"
  ],
  [
    22.349486351013184,
    "$GPVTG,,T,,M,2.132,N,3.948,K,A*27\r\n"
  ],
  [
    22.350093841552734,
    "$GPGGA,003022.00,3733.67375,N,12656.13537,E,1,06,2.00,49.5,M,18.4,M,,*6F\r\n"
  ],
  [
    22.350531578063965,
    "$GPGSA,A,3,08,02,07,27,16,30,,,,,,,3.00,2.00,2.24*0B\r\n"
  ],
  [
    22.350998640060425,
    "$GPGSV,4,1,13,01,32,187,,02,60,075,12,07,56,280,29,08,69,015,30*70\r\n"
  ],
  [
    22.351425409317017,
    "$GPGSV,4,2,13,09,05,233,,10,10,070,,14,06,298,16,16,27,099,22*71\r\n"
  ],
  [
    22.351857662200928,
    "$GPGSV,4,3,13,21,60,167,05,23,02,038,,26,00,115,,27,37,051,15*74\r\n"
  ],
  [
    22.352062463760376,
    "$GPGSV,4,4,13,30,30,309,20*43\r\n"
  ],
  [
    22.35240125656128,
    "$GPGLL,3733.67375,N,12656.13537,E,003022.00,A,A*6B\r\n"
  ],
  [
    23.35206389427185,
    "$GPRMC,003023.00,A,3733.67368,N,12656.13448,E,2.326,,230523,,,A*76\r\n"
  ],
  [
    23.35236096382141,
    "$GPVTG,,T,,M,2.326,N,4.308,K,A*29\r\n"
  ],
  [
    23.35287880897522,
    "$GPGGA,003023.00,3733.67368,N,12656.13448,E,1,06,2.00,49.2,M,18.4,M,,*6C\r\n"
  ],
  [
    23.353243827819824,
    "$GPGSA,A,3,08,02,07,27,16,30,,,,,,,3.00,2.00,2.24*0B\r\n"
  ],
  [
    23.353687047958374,
    "$GPGSV,4,1,13,01,32,187,,02,60,075,11,07,56,280,29,08,69,015,28*7A\r\n"
  ],
  [
    23.354113817214966,
    "$GPGSV,4,2,13,09,05,233,,10,10,070,,14,06,298,14,16,27,099,24*75\r\n"
  ],
  [
    23.35453224182129,
    "$GPGSV,4,3,13,21,60,167,09,23,02,038,,26,00,115,,27,37,051,12*7F\r\n"
  ],
  [
    23.354780435562134,
    "$GPGSV,4,4,13,30,30,309,22*41\r\n"
  ],
  [
    23.355115175247192,
    "$GPGLL,3733.67368,N,12656.13448,E,003023.00,A,A*6F\r\n"
  ],
  [
    24.35445547103882,
    "$GPRMC,003024.00,A,3733.67320,N,12656.13359,E,2.168,,230523,,,A*72\r\n"
  ],
  [
    24.35479474067688,
    "$GPVTG,,T,,M,2.168,N,4.016,K,A*2D\r\n"
  ],
  [
    24.355432271957397,
    "$GPGGA,003024.00,3733.67320,N,12656.13359,E,1,06,1.88,49.0,M,18.4,M,,*61\r\n"
  ],
  [
    24.355870008468628,
    "$GPGSA,A,3,08,02,07,27,16,30,,,,,,,2.76,1.88,2.02*0C\r\n"
  ],
  [
    24.356308937072754,
    "$GPGSV,4,1,13,01,32,187,,02,60,075,10,07,56,280,29,08,69,015,28*7B\r\n"
  ],
  [
    24.35674023628235,
    "$GPGSV,4,2,13,09,05,233,,10,10,070,,14,06,298,11,16,27,099,21*75\r\n"
  ],
  [
    24.357160329818726,
    "$GPGSV,4,3,13,21,60,167,16,23,02,038,,26,00,115,,27,37,051,10*73\r\n"
  ],
  [
    24.357367277145386,
    "$GPGSV,4,4,13,30,30,309,23*40\r\n"
  ],
  [
    24.357709884643555,
    "$GPGLL,3733.67320,N,12656.13359,E,003024.00,A,A*63\r\n"
  ],
  [
    25.355550289154053,
    "$GPRMC,003025.00,A,3733.67291,N,12656.13327,E,1.484,,230523,,,A*75\r\n"
  ],
  [
    25.35586190223694,
    "$GPVTG,,T,,M,1.484,N,2.749,K,A*22\r\n"
  ],
  [
    25.35641074180603,
    "$GPGGA,003025.00,3733.67291,N,12656.13327,E,1,06,1.81,48.9,M,18.4,M,,*63\r\n"
  ],
  [
    25.356783866882324,
    "$GPGSA,A,3,08,02,07,21,16,30,,,,,,,2.76,1.81,2.08*09\r\n"
  ],
  [
    25.357232093811035,
    "$GPGSV,4,1,13,01,32,187,05,02,60,075,12,07,56,280,28,08,69,015,28*7D\r\n"
  ],
  [
    25.35764479637146,
    "$GPGSV,4,2,13,09,05,233,,10,10,070,,14,06,298,09,16,27,099,21*7C\r\n"
  ],
  [
    25.358052015304565,
    "$GPGSV,4,3,13,21,60,167,20,23,02,038,,26,00,115,,27,37,051,09*7E\r\n"
  ],
  [
    25.35824465751648,
    "$GPGSV,4,4,13,30,30,309,23*40\r\n"
  ],
  [
    25.358570098876953,
    "$GPGLL,3733.67291,N,12656.13327,E,003025.00,A,A*60\r\n"
  ],
  [
    26.36435031890869,
    "$GPRMC,003026.00,A,3733.67387,N,12656.13253,E,1.971,,230523,,,A*75\r\n"
  ],
  [
    26.36467933654785,
    "$GPVTG,,T,,M,1.971,N,3.651,K,A*2C\r\n"
  ],
  [
    26.365232229232788,
    "$GPGGA,003026.00,3733.67387,N,12656.13253,E,1,06,1.62,48.4,M,18.4,M,,*64\r\n"
  ],
  [
    26.365638256072998,
    "$GPGSA,A,3,08,02,07,21,16,30,,,,,,,2.57,1.62,1.99*0C\r\n"
  ],
  [
    26.366094827651978,
    "$GPGSV,4,1,13,01,32,187,07,02,60,075,15,07,56,280,25,08,69,015,26*7B\r\n"
  ],
  [
    26.366522073745728,
    "$GPGSV,4,2,13,09,05,233,,10,10,070,,14,06,298,08,16,27,099,20*7C\r\n"
  ],
  [
    26.366960048675537,
    "$GPGSV,4,3,13,21,60,167,22,23,02,038,,26,00,115,,27,37,051,08*7D\r\n"
  ],
  [
    26.367164373397827,
    "$GPGSV,4,4,13,30,30,309,23*40\r\n"
  ],
  [
    26.367502689361572,
    "$GPGLL,3733.67387,N,12656.13253,E,003026.00,A,A*67\r\n"
  ],
  [
    27.355469226837158,
    "$GPRMC,003027.00,A,3733.67447,N,12656.13171,E,2.089,,230523,,,A*71\r\n"
  ],
  [
    27.355844974517822,
    "$GPVTG,,T,,M,2.089,N,3.869,K,A*24\r\n"
  ],
  [
    27.35642981529236,
    "$GPGGA,003027.00,3733.67447,N,12656.13171,E,1,06,1.62,47.9,M,18.4,M,,*6F\r\n"
  ],
  [
    27.356860399246216,
    "$GPGSA,A,3,08,02,07,21,16,30,,,,,,,2.57,1.62,1.99*0C\r\n"
  ],
  [
    27.35732412338257,
    "$GPGSV,4,1,13,01,32,187,10,02,60,075,19,07,56,280,25,08,69,015,26*71\r\n"
  ],
  [
    27.357775688171387,
    "$GPGSV,4,2,13,09,05,233,,10,10,070,,14,06,298,08,16,27,099,23*7F\r\n"
  ],
  [
    27.358213186264038,
    "$GPGSV,4,3,13,21,60,167,24,23,02,038,,26,00,115,,27,37,051,08*7B\r\n"
  ],
  [
    27.358430862426758,
    "$GPGSV,4,4,13,30,30,309,24*47\r\n"
  ],
  [
    27.358811616897583,
    "$GPGLL,3733.67447,N,12656.13171,E,003027.00,A,A*6E\r\n"
  ],
  [
    28.357351303100586,
    "$GPRMC,003028.00,A,3733.67495,N,12656.13086,E,2.220,,230523,,,A*79\r\n"
  ],
  [
    28.35765504837036,
    "$GPVTG,,T,,M,2.220,N,4.112,K,A*27\r\n"
  ],
  [
    28.35815167427063,
    "$GPGGA,003028.00,3733.67495,N,12656.13086,E,1,06,1.62,47.5,M,18.4,M,,*6A\r\n"
  ],
  [
    28.358538389205933,
    "$GPGSA,A,3,08,02,07,21,16,30,,,,,,,2.57,1.62,1.99*0C\r\n"
  ],
  [
    28.359010934829712,
    "$GPGSV,4,1,13,01,32,187,12,02,60,075,28,07,56,280,27,08,69,015,26*73\r\n"
  ],
  [
    28.359448671340942,
    "$GPGSV,4,2,13,09,05,233,,10,10,070,,14,06,298,09,16,27,099,24*79\r\n"
  ],
  [
    28.359909296035767,
    "$GPGSV,4,3,13,21,60,167,25,23,02,038,,26,00,115,,27,37,051,08*7A\r\n"
  ],
  [
    28.360118865966797,
    "$GPGSV,4,4,13,30,30,309,26*45\r\n"
  ],
  [
    28.36045479774475,
    "$GPGLL,3733.67495,N,12656.13086,E,003028.00,A,A*67\r\n"
  ],
  [
    29.356278896331787,
    "$GPRMC,003029.00,A,3733.67524,N,12656.13000,E,2.389,,230523,,,A*7F\r\n"
  ],
  [
    29.356590509414673,
    "$GPVTG,,T,,M,2.389,N,4.424,K,A*25\r\n"
  ],
  [
    29.357181310653687,
    "$GPGGA,003029.00,3733.67524,N,12656.13000,E,1,07,1.36,47.3,M,18.4,M,,*68\r\n"
  ],
  [
    29.35764455795288,
    "$GPGSA,A,3,08,02,07,21,27,16,30,,,,,,2.41,1.36,1.99*0F\r\n"
  ],
  [
    29.35813856124878,
    "$GPGSV,4,1,13,01,32,187,12,02,60,075,24,07,56,280,28,08,69,015,26*70\r\n"
  ],
  [
    29.358545780181885,
    "$GPGSV,4,2,13,09,05,233,,10,10,070,,14,06,298,10,16,27,099,23*76\r\n"
  ],
  [
    29.358962059020996,
    "$GPGSV,4,3,13,21,60,167,24,23,02,038,,26,00,115,,27,37,051,13*71\r\n"
  ],
  [
    29.359158277511597,
    "$GPGSV,4,4,13,30,30,309,27*44\r\n"
  ],
  [
    29.359484434127808,
    "$GPGLL,3733.67524,N,12656.13000,E,003029.00,A,A*63\r\n"
  ],
  [
    30.366737127304077,
    "$GPRMC,003030.00,A,3733.67724,N,12656.12981,E,2.154,,230523,,,A*76\r\n"
  ],
  [
    30.367047548294067,
    "$GPVTG,,T,,M,2.154,N,3.990,K,A*22\r\n"
  ],
  [
    30.367595911026,
    "$GPGGA,003030.00,3733.67724,N,12656.12981,E,1,08,1.03,47.8,M,18.4,M,,*61\r\n"
  ],
  [
    30.36803936958313,
    "$GPGSA,A,3,08,02,07,21,27,16,30,01,,,,,1.95,1.03,1.66*02\r\n"
  ],
  [
    30.368489265441895,
    "$GPGSV,4,1,13,01,32,187,10,02,60,075,22,07,56,280,28,08,69,015,27*75\r\n"
  ],
  [
    30.368919610977173,
    "$GPGSV,4,2,13,09,05,233,,10,10,070,,14,06,298,12,16,27,099,21*76\r\n"
  ],
  [
    30.36934185028076,
    "$GPGSV,4,3,13,21,60,167,22,23,02,038,,26,00,115,,27,37,051,16*72\r\n"
  ],
  [
    30.369569540023804,
    "$GPGSV,4,4,13,30,30,309,27*44\r\n"
  ],
  [
    30.369930505752563,
    "$GPGLL,3733.67724,N,12656.12981,E,003030.00,A,A*68\r\n"
  ],
  [
    31.365238428115845,
    "$GPRMC,003031.00,A,3733.67680,N,12656.12892,E,1.927,,230523,,,A*74\r\n"
  ],
  [
    31.365511417388916,
    "$GPVTG,,T,,M,1.927,N,3.568,K,A*26\r\n"
  ],
  [
    31.36604952812195,
    "$GPGGA,003031.00,3733.67680,N,12656.12892,E,1,07,1.36,47.8,M,18.4,M,,*65\r\n"
  ],
  [
    31.366456508636475,
    "$GPGSA,A,3,08,02,07,21,27,16,30,,,,,,2.41,1.36,1.99*0F\r\n"
  ],
  [
    31.366931676864624,
    "$GPGSV,4,1,13,01,32,187,08,02,60,075,23,07,56,280,28,08,69,015,28*72\r\n"
  ],
  [
    31.367363929748535,
    "$GPGSV,4,2,13,09,05,233,,10,10,070,,14,06,298,11,16,27,099,19*7E\r\n"
  ],
  [
    31.367992639541626,
    "$GPGSV,4,3,13,21,60,167,20,23,02,038,,26,00,115,,27,37,051,15*73\r\n"
  ],
  [
    31.368327140808105,
    "$GPGSV,4,4,13,30,30,309,25*46\r\n"
  ],
  [
    31.368887186050415,
    "$GPGLL,3733.67680,N,12656.12892,E,003031.00,A,A*65\r\n"
  ],
  [
    32.385966777801514,
    "$GPRMC,003032.00,A,3733.67687,N,12656.12825,E,1.908,,230523,,,A*71\r\n"
  ],
  [
    32.386271476745605,
    "$GPVTG,,T,,M,1.908,N,3.535,K,A*23\r\n"
  ],
  [
    32.38687610626221,
    "$GPGGA,003032.00,3733.67687,N,12656.12825,E,1,07,1.36,47.8,M,18.4,M,,*6D\r\n"
  ],
  [
    32.387346267700195,
    "$GPGSA,A,3,08,02,07,21,27,16,30,,,,,,2.41,1.36,1.99*0F\r\n"
  ],
  [
    32.38785791397095,
    "$GPGSV,4,1,13,01,32,187,08,02,60,075,25,07,56,280,28,08,69,015,28*74\r\n"
  ],
  [
    32.38827896118164,
    "$GPGSV,4,2,13,09,05,233,,10,10,070,,14,06,298,14,16,27,099,15*77\r\n"
  ],
  [
    32.38870882987976,
    "$GPGSV,4,3,13,21,60,167,20,23,02,038,,26,00,115,,27,37,051,15*73\r\n"
  ],
  [
    32.388920068740845,
    "$GPGSV,4,4,13,30,30,309,24*47\r\n"
  ],
  [
    32.3892560005188,
    "$GPGLL,3733.67687,N,12656.12825,E,003032.00,A,A*6D\r\n"
  ],
  [
    33.361823320388794,
    "$GPRMC,003033.00,A,3733.67650,N,12656.12749,E,1.857,,230523,,,A*74\r\n"
  ],
  [
    33.362120628356934,
    "$GPVTG,,T,,M,1.857,N,3.438,K,A*24\r\n"
  ],
  [
    33.362669706344604,
    "$GPGGA,003033.00,3733.67650,N,12656.12749,E,1,08,1.36,47.8,M,18.4,M,,*6C\r\n"
  ],
  [
    33.36306166648865,
    "$GPGSA,A,3,08,02,07,21,27,16,30,01,,,,,2.41,1.36,1.99*0E\r\n"
  ],
  [
    33.36351728439331,
    "$GPGSV,4,1,13,01,32,187,12,02,60,075,27,07,56,280,27,08,69,015,28*72\r\n"
  ],
  [
    33.36395335197449,
    "$GPGSV,4,2,13,09,05,233,,10,10,070,,14,06,298,15,16,27,099,12*71\r\n"
  ],
  [
    33.36438345909119,
    "$GPGSV,4,3,13,21,60,167,28,23,02,038,,26,00,115,,27,37,051,18*76\r\n"
  ],
  [
    33.364588022232056,
    "$GPGSV,4,4,13,30,30,309,22*41\r\n"
  ],
  [
    33.364943742752075,
    "$GPGLL,3733.67650,N,12656.12749,E,003033.00,A,A*63\r\n"
  ],
  [
    34.370391607284546,
    "$GPRMC,003034.00,A,3733.67788,N,12656.12703,E,2.086,244.25,230523,,,A*65\r\n"
  ],
  [
    34.370760917663574,
    "$GPVTG,244.25,T,,M,2.086,N,3.863,K,A*3A\r\n"
  ],
  [
    34.37131071090698,
    "$GPGGA,003034.00,3733.67788,N,12656.12703,E,1,08,1.03,48.3,M,18.4,M,,*63\r\n"
  ],
  [
    34.37173128128052,
    "$GPGSA,A,3,08,02,07,21,27,16,30,01,,,,,1.95,1.03,1.66*02\r\n"
  ],
  [
    34.372180700302124,
    "$GPGSV,4,1,13,01,32,187,13,02,60,075,28,07,56,280,25,08,69,015,28*7E\r\n"
  ],
  [
    34.372600078582764,
    "$GPGSV,4,2,13,09,05,233,,10,10,070,,14,06,298,15,16,27,099,11*72\r\n"
  ],
  [
    34.37302851676941,
    "$GPGSV,4,3,13,21,60,167,27,23,02,038,,26,00,115,,27,37,051,21*73\r\n"
  ],
  [
    34.37323021888733,
    "$GPGSV,4,4,13,30,30,309,29*4A\r\n"
  ],
  [
    34.373565912246704,
    "$GPGLL,3733.67788,N,12656.12703,E,003034.00,A,A*6E\r\n"
  ],
  [
    35.36524486541748,
    "$GPRMC,003035.00,A,3733.67944,N,12656.12682,E,2.064,258.54,230523,,,A*65\r\n"
  ],
  [
    35.36573052406311,
    "$GPVTG,258.54,T,,M,2.064,N,3.823,K,A*39\r\n"
  ],
  [
    35.36634922027588,
    "$GPGGA,003035.00,3733.67944,N,12656.12682,E,1,07,1.16,49.0,M,18.4,M,,*6D\r\n"
  ],
  [
    35.366828203201294,
    "$GPGSA,A,3,08,02,07,21,27,30,01,,,,,,2.37,1.16,2.07*0E\r\n"
  ],
  [
    35.367363929748535,
    "$GPGSV,4,1,13,01,32,187,16,02,60,075,28,07,56,280,25,08,69,015,25*76\r\n"
  ],
  [
    35.36787271499634,
    "$GPGSV,4,2,13,09,05,233,,10,10,070,,14,06,298,14,16,27,099,09*7A\r\n"
  ],
  [
    35.368369817733765,
    "$GPGSV,4,3,13,21,60,167,28,23,02,038,,26,00,115,,27,37,051,30*7C\r\n"
  ],
  [
    35.368640422821045,
    "$GPGSV,4,4,13,30,30,309,28*4B\r\n"
  ],
  [
    35.36905574798584,
    "$GPGLL,3733.67944,N,12656.12682,E,003035.00,A,A*69\r\n"
  ],
  [
    36.36012077331543,
    "$GPRMC,003036.00,A,3733.67946,N,12656.12617,E,1.779,,230523,,,A*70\r\n"
  ],
  [
    36.360437631607056,
    "$GPVTG,,T,,M,1.779,N,3.294,K,A*27\r\n"
  ],
  [
    36.361018896102905,
    "$GPGGA,003036.00,3733.67946,N,12656.12617,E,1,07,1.66,49.0,M,18.4,M,,*67\r\n"
  ],
  [
    36.36144661903381,
    "$GPGSA,A,3,08,02,07,21,27,30,01,,,,,,3.62,1.66,3.22*0E\r\n"
  ],
  [
    36.361891984939575,
    "$GPGSV,4,1,13,01,32,187,18,02,60,075,32,07,56,280,30,08,69,015,25*77\r\n"
  ],
  [
    36.36231565475464,
    "$GPGSV,4,2,13,09,05,233,05,10,10,070,,14,06,298,16,16,27,099,08*7C\r\n"
  ],
  [
    36.36273241043091,
    "$GPGSV,4,3,13,21,60,167,26,23,02,038,,26,00,115,,27,37,051,33*71\r\n"
  ],
  [
    36.36292886734009,
    "$GPGSV,4,4,13,30,30,309,27*44\r\n"
  ],
  [
    36.36325144767761,
    "$GPGLL,3733.67946,N,12656.12617,E,003036.00,A,A*64\r\n"
  ],
  [
    37.35943078994751,
    "$GPRMC,003037.00,A,3733.68060,N,12656.12586,E,1.783,,230523,,,A*7D\r\n"
  ],
  [
    37.359745264053345,
    "$GPVTG,,T,,M,1.783,N,3.302,K,A*2C\r\n"
  ],
  [
    37.36026215553284,
    "$GPGGA,003037.00,3733.68060,N,12656.12586,E,1,07,1.16,49.8,M,18.4,M,,*60\r\n"
  ],
  [
    37.36065721511841,
    "$GPGSA,A,3,08,02,07,21,27,30,01,,,,,,2.37,1.16,2.07*0E\r\n"
  ],
  [
    37.3610954284668,
    "$GPGSV,4,1,13,01,32,187,19,02,60,075,28,07,56,280,19,08,69,015,26*75\r\n"
  ],
  [
    37.36150670051575,
    "$GPGSV,4,2,13,09,05,233,08,10,10,070,,14,06,298,17,16,27,099,08*70\r\n"
  ],
  [
    37.3619327545166,
    "$GPGSV,4,3,13,21,60,167,25,23,02,038,,26,00,115,,27,37,051,28*78\r\n"
  ],
  [
    37.3621244430542,
    "$GPGSV,4,4,13,30,30,309,25*46\r\n"
  ],
  [
    37.36244177818298,
    "$GPGLL,3733.68060,N,12656.12586,E,003037.00,A,A*6C\r\n"
  ],
  [
    38.3687698841095,
    "$GPRMC,003038.00,A,3733.68157,N,12656.12539,E,1.854,,230523,,,A*76\r\n"
  ],
  [
    38.368884563446045,
    "$GPVTG,,T,,M,1.854,N,3.433,K,A*2C\r\n"
  ],
  [
    38.36909079551697,
    "$GPGGA,003038.00,3733.68157,N,12656.12539,E,1,07,1.16,50.3,M,18.4,M,,*6D\r\n"
  ],
  [
    38.36925482749939,
    "$GPGSA,A,3,08,02,07,21,27,30,01,,,,,,2.37,1.16,2.07*0E\r\n"
  ],
  [
    38.36944937705994,
    "$GPGSV,4,1,13,01,32,187,16,02,60,075,27,07,56,280,24,08,69,015,27*7A\r\n"
  ],
  [
    38.369643211364746,
    "$GPGSV,4,2,13,09,05,233,11,10,10,070,,14,06,298,16,16,27,099,08*79\r\n"
  ],
  [
    38.36982750892639,
    "$GPGSV,4,3,13,21,60,167,26,23,02,038,,26,00,115,,27,37,051,29*7A\r\n"
  ],
  [
    38.3699152469635,
    "$GPGSV,4,4,13,30,30,309,24*47\r\n"
  ],
  [
    38.37006115913391,
    "$GPGLL,3733.68157,N,12656.12539,E,003038.00,A,A*62\r\n"
  ],
  [
    39.36530351638794,
    "$GPRMC,003039.00,A,3733.68266,N,12656.12502,E,1.983,272.54,230523,,,A*6D\r\n"
  ],
  [
    39.36569333076477,
    "$GPVTG,272.54,T,,M,1.983,N,3.672,K,A*38\r\n"
  ],
  [
    39.366251945495605,
    "$GPGGA,003039.00,3733.68266,N,12656.12502,E,1,07,1.16,51.1,M,18.4,M,,*66\r\n"
  ],
  [
    39.36666202545166,
    "$GPGSA,A,3,08,02,07,21,27,30,01,,,,,,2.37,1.16,2.07*0E\r\n"
  ],
  [
    39.36711072921753,
    "$GPGSV,4,1,13,01,32,187,15,02,60,075,27,07,56,280,25,08,69,015,31*7F\r\n"
  ],
  [
    39.36757850646973,
    "$GPGSV,4,2,13,09,05,233,10,10,10,070,,14,06,298,14,16,27,099,08*7A\r\n"
  ],
  [
    39.36799097061157,
    "$GPGSV,4,3,13,21,60,167,26,23,02,038,,26,00,115,,27,37,051,32*70\r\n"
  ],
  [
    39.368125200271606,
    "$GPGSV,4,4,13,30,30,309,25*46\r\n"
  ],
  [
    39.36824178695679,
    "$GPGLL,3733.68266,N,12656.12502,E,003039.00,A,A*6A\r\n"
  ],
  [
    40.358317136764526,
    "$GPRMC,003040.00,A,3733.68352,N,12656.12445,E,2.156,275.25,230523,,,A*65\r\n"
  ],
  [
    40.3586859703064,
    "$GPVTG,275.25,T,,M,2.156,N,3.992,K,A*3B\r\n"
  ],
  [
    40.35921812057495,
    "$GPGGA,003040.00,3733.68352,N,12656.12445,E,1,07,1.16,51.8,M,18.4,M,,*65\r\n"
  ],
  [
    40.35958433151245,
    "$GPGSA,A,3,08,02,07,21,27,30,01,,,,,,2.37,1.16,2.07*0E\r\n"
  ],
  [
    40.36003136634827,
    "$GPGSV,4,1,13,01,32,187,17,02,60,075,28,07,56,280,26,08,69,015,30*70\r\n"
  ],
  [
    40.36045837402344,
    "$GPGSV,4,2,13,09,05,233,10,10,10,070,,14,06,298,14,16,27,099,*72\r\n"
  ],
  [
    40.360896587371826,
    "$GPGSV,4,3,13,21,60,167,32,23,02,038,,26,00,115,,27,37,051,29*7F\r\n"
  ],
  [
    40.36109662055969,
    "$GPGSV,4,4,13,30,30,309,24*47\r\n"
  ],
  [
    40.36142873764038,
    "$GPGLL,3733.68352,N,12656.12445,E,003040.00,A,A*60\r\n"
  ],
  [
    41.35950422286987,
    "$GPRMC,003041.00,A,3733.68462,N,12656.12396,E,2.313,276.36,230523,,,A*6B\r\n"
  ],
  [
    41.359899282455444,
    "$GPVTG,276.36,T,,M,2.313,N,4.284,K,A*32\r\n"
  ],
  [
    41.36044907569885,
    "$GPGGA,003041.00,3733.68462,N,12656.12396,E,1,08,1.13,52.3,M,18.4,M,,*6B\r\n"
  ],
  [
    41.360896825790405,
    "$GPGSA,A,3,08,02,07,21,27,30,01,09,,,,,1.91,1.13,1.54*08\r\n"
  ],
  [
    41.36106514930725,
    "$GPGSV,4,1,13,01,32,187,19,02,60,075,29,07,56,280,29,08,69,015,31*71\r\n"
  ],
  [
    41.36121225357056,
    "$GPGSV,4,2,13,09,05,233,12,10,10,070,,14,06,298,14,16,27,099,*70\r\n"
  ],
  [
    41.36135959625244,
    "$GPGSV,4,3,13,21,60,167,32,23,02,038,,26,00,115,,27,37,051,28*7E\r\n"
  ],
  [
    41.361430406570435,
    "$GPGSV,4,4,13,30,30,309,25*46\r\n"
  ],
  [
    41.36154770851135,
    "$GPGLL,3733.68462,N,12656.12396,E,003041.00,A,A*6C\r\n"
  ],
  [
    42.371437788009644,
    "$GPRMC,003042.00,A,3733.68527,N,12656.12323,E,2.328,278.48,230523,,,A*69\r\n"
  ],
  [
    42.37181329727173,
    "$GPVTG,278.48,T,,M,2.328,N,4.311,K,A*30\r\n"
  ],
  [
    42.37236309051514,
    "$GPGGA,003042.00,3733.68527,N,12656.12323,E,1,08,1.13,52.6,M,18.4,M,,*63\r\n"
  ],
  [
    42.37283778190613,
    "$GPGSA,A,3,08,02,07,21,27,30,01,09,,,,,1.91,1.13,1.54*08\r\n"
  ],
  [
    42.373292684555054,
    "$GPGSV,4,1,13,01,32,187,19,02,60,075,28,07,56,280,29,08,69,015,31*70\r\n"
  ],
  [
    42.37372708320618,
    "$GPGSV,4,2,13,09,05,233,11,10,10,070,,14,06,298,16,16,27,099,*71\r\n"
  ],
  [
    42.3741569519043,
    "$GPGSV,4,3,13,21,60,167,32,23,02,038,,26,00,115,,27,37,051,28*7E\r\n"
  ],
  [
    42.374361753463745,
    "$GPGSV,4,4,13,30,30,309,26*45\r\n"
  ],
  [
    42.37470769882202,
    "$GPGLL,3733.68527,N,12656.12323,E,003042.00,A,A*61\r\n"
  ],
  [
    43.3622829914093,
    "$GPRMC,003043.00,A,3733.68592,N,12656.12266,E,2.242,281.27,230523,,,A*64\r\n"
  ],
  [
    43.36263465881348,
    "$GPVTG,281.27,T,,M,2.242,N,4.152,K,A*37\r\n"
  ],
  [
    43.36323428153992,
    "$GPGGA,003043.00,3733.68592,N,12656.12266,E,1,07,1.16,53.5,M,18.4,M,,*64\r\n"
  ],
  [
    43.3636839389801,
    "$GPGSA,A,3,08,02,07,21,27,30,01,,,,,,2.37,1.16,2.07*0E\r\n"
  ],
  [
    43.36412501335144,
    "$GPGSV,4,1,13,01,32,187,19,02,60,075,28,07,56,280,21,08,69,015,27*7F\r\n"
  ],
  [
    43.36454248428345,
    "$GPGSV,4,2,13,09,05,233,09,10,10,070,,14,06,298,17,16,27,099,15*7D\r\n"
  ],
  [
    43.36499094963074,
    "$GPGSV,4,3,13,21,60,167,32,23,02,038,,26,00,115,,27,37,051,32*75\r\n"
  ],
  [
    43.36520218849182,
    "$GPGSV,4,4,13,30,30,309,27*44\r\n"
  ],
  [
    43.36553764343262,
    "$GPGLL,3733.68592,N,12656.12266,E,003043.00,A,A*6E\r\n"
  ],
  [
    44.36522173881531,
    "$GPRMC,003044.00,A,3733.68637,N,12656.12194,E,2.072,281.39,230523,,,A*6F\r\n"
  ],
  [
    44.36558771133423,
    "$GPVTG,281.39,T,,M,2.072,N,3.838,K,A*3B\r\n"
  ],
  [
    44.366185903549194,
    "$GPGGA,003044.00,3733.68637,N,12656.12194,E,1,07,1.16,54.1,M,18.4,M,,*62\r\n"
  ],
  [
    44.36664891242981,
    "$GPGSA,A,3,08,02,07,21,27,30,01,,,,,,2.38,1.16,2.07*01\r\n"
  ],
  [
    44.3671441078186,
    "$GPGSV,4,1,13,01,32,187,17,02,60,075,27,07,56,280,28,08,69,015,32*73\r\n"
  ],
  [
    44.36758232116699,
    "$GPGSV,4,2,13,09,05,233,,10,10,070,,14,06,298,17,16,27,099,15*74\r\n"
  ],
  [
    44.36803150177002,
    "$GPGSV,4,3,13,21,60,167,31,23,02,038,,26,00,115,,27,37,051,31*75\r\n"
  ],
  [
    44.36824822425842,
    "$GPGSV,4,4,13,30,30,309,26*45\r\n"
  ],
  [
    44.36859965324402,
    "$GPGLL,3733.68637,N,12656.12194,E,003044.00,A,A*6B\r\n"
  ],
  [
    45.36642527580261,
    "$GPRMC,003045.00,A,3733.68693,N,12656.12136,E,2.116,281.79,230523,,,A*6F\r\n"
  ],
  [
    45.36680507659912,
    "$GPVTG,281.79,T,,M,2.116,N,3.919,K,A*3E\r\n"
  ],
  [
    45.36742687225342,
    "$GPGGA,003045.00,3733.68693,N,12656.12136,E,1,07,1.16,54.6,M,18.4,M,,*62\r\n"
  ],
  [
    45.367833852767944,
    "$GPGSA,A,3,08,02,07,21,27,30,01,,,,,,2.38,1.16,2.07*01\r\n"
  ],
  [
    45.36829090118408,
    "$GPGSV,4,1,13,01,32,187,18,02,60,075,28,07,56,280,27,08,68,016,28*75\r\n"
  ],
  [
    45.36875510215759,
    "$GPGSV,4,2,13,09,05,233,,10,10,070,,14,06,298,16,16,27,099,15*75\r\n"
  ],
  [
    45.36919927597046,
    "$GPGSV,4,3,13,21,60,167,30,23,02,038,,26,00,115,,27,37,051,24*70\r\n"
  ],
  [
    45.36942410469055,
    "$GPGSV,4,4,13,30,30,309,26*45\r\n"
  ],
  [
    45.36979055404663,
    "$GPGLL,3733.68693,N,12656.12136,E,003045.00,A,A*6C\r\n"
  ],
  [
    46.367228984832764,
    "$GPRMC,003046.00,A,3733.68724,N,12656.12071,E,2.101,282.72,230523,,,A*6D\r\n"
  ],
  [
    46.36758518218994,
    "$GPVTG,282.72,T,,M,2.101,N,3.892,K,A*32\r\n"
  ],
  [
    46.36816334724426,
    "$GPGGA,003046.00,3733.68724,N,12656.12071,E,1,07,1.16,55.2,M,18.4,M,,*6B\r\n"
  ],
  [
    46.36862850189209,
    "$GPGSA,A,3,08,02,07,21,27,30,01,,,,,,2.38,1.16,2.07*01\r\n"
  ],
  [
    46.36909079551697,
    "$GPGSV,4,1,13,01,32,187,17,02,60,075,27,07,56,280,27,08,68,016,29*74\r\n"
  ],
  [
    46.36951684951782,
    "$GPGSV,4,2,13,09,05,233,,10,10,070,,14,06,298,17,16,27,099,15*74\r\n"
  ],
  [
    46.369943380355835,
    "$GPGSV,4,3,13,21,60,167,32,23,02,038,,26,00,115,,27,37,051,26*70\r\n"
  ],
  [
    46.37014842033386,
    "$GPGSV,4,4,13,30,30,309,26*45\r\n"
  ],
  [
    46.37048530578613,
    "$GPGLL,3733.68724,N,12656.12071,E,003046.00,A,A*60\r\n"
  ],
  [
    47.3587327003479,
    "$GPRMC,003047.00,A,3733.68743,N,12656.12004,E,1.975,281.42,230523,,,A*67\r\n"
  ],
  [
    47.35907745361328,
    "$GPVTG,281.42,T,,M,1.975,N,3.658,K,A*32\r\n"
  ],
  [
    47.359580993652344,
    "$GPGGA,003047.00,3733.68743,N,12656.12004,E,1,08,1.03,55.7,M,18.4,M,,*67\r\n"
  ],
  [
    47.3599808216095,
    "$GPGSA,A,3,08,02,07,21,27,16,30,01,,,,,1.95,1.03,1.66*02\r\n"
  ],
  [
    47.360435962677,
    "$GPGSV,4,1,13,01,32,187,18,02,60,075,31,07,56,280,27,08,68,016,29*7C\r\n"
  ],
  [
    47.36087083816528,
    "$GPGSV,4,2,13,09,05,233,,10,10,069,,14,06,298,15,16,27,099,17*7C\r\n"
  ],
  [
    47.361294984817505,
    "$GPGSV,4,3,13,21,60,167,33,23,02,038,,26,00,115,,27,37,051,25*72\r\n"
  ],
  [
    47.361499547958374,
    "$GPGSV,4,4,13,30,30,309,27*44\r\n"
  ],
  [
    47.36184620857239,
    "$GPGLL,3733.68743,N,12656.12004,E,003047.00,A,A*62\r\n"
  ],
  [
    48.37224507331848,
    "$GPRMC,003048.00,A,3733.68787,N,12656.11947,E,1.964,286.24,230523,,,A*6A\r\n"
  ],
  [
    48.37268137931824,
    "$GPVTG,286.24,T,,M,1.964,N,3.638,K,A*33\r\n"
  ],
  [
    48.373230934143066,
    "$GPGGA,003048.00,3733.68787,N,12656.11947,E,1,08,1.03,56.1,M,18.4,M,,*68\r\n"
  ],
  [
    48.373626708984375,
    "$GPGSA,A,3,08,02,07,21,27,16,30,01,,,,,1.95,1.03,1.66*02\r\n"
  ],
  [
    48.374075412750244,
    "$GPGSV,4,1,13,01,32,187,17,02,60,075,27,07,56,280,26,08,68,016,30*7D\r\n"
  ],
  [
    48.37448167800903,
    "$GPGSV,4,2,13,09,05,233,,10,10,069,,14,06,298,14,16,27,099,17*7D\r\n"
  ],
  [
    48.37489604949951,
    "$GPGSV,4,3,13,21,60,167,33,23,02,038,,26,00,115,,27,37,051,24*73\r\n"
  ],
  [
    48.37509083747864,
    "$GPGSV,4,4,13,30,30,309,27*44\r\n"
  ],
  [
    48.37541151046753,
    "$GPGLL,3733.68787,N,12656.11947,E,003048.00,A,A*68\r\n"
  ],
  [
    49.3596670627594,
    "$GPRMC,003049.00,A,3733.68825,N,12656.11873,E,2.317,288.40,230523,,,A*6B\r\n"
  ],
  [
    49.35980296134949,
    "$GPVTG,288.40,T,,M,2.317,N,4.291,K,A*32\r\n"
  ],
  [
    49.3600115776062,
    "$GPGGA,003049.00,3733.68825,N,12656.11873,E,1,08,1.03,56.5,M,18.4,M,,*6C\r\n"
  ],
  [
    49.36018466949463,
    "$GPGSA,A,3,08,02,07,21,27,16,30,01,,,,,1.95,1.03,1.66*02\r\n"
  ],
  [
    49.36038565635681,
    "$GPGSV,4,1,13,01,32,187,16,02,60,075,28,07,56,280,25,08,68,016,29*78\r\n"
  ],
  [
    49.36056876182556,
    "$GPGSV,4,2,13,09,05,233,,10,10,069,,14,06,298,14,16,27,099,18*72\r\n"
  ],
  [
    49.3607611656189,
    "$GPGSV,4,3,13,21,60,167,33,23,02,038,,26,00,115,,27,37,051,23*74\r\n"
  ],
  [
    49.36085247993469,
    "$GPGSV,4,4,13,30,30,309,28*4B\r\n"
  ],
  [
    49.36099600791931,
    "$GPGLL,3733.68825,N,12656.11873,E,003049.00,A,A*68\r\n"
  ],
  [
    50.367189168930054,
    "$GPRMC,003050.00,A,3733.68849,N,12656.11796,E,2.350,288.98,230523,,,A*6B\r\n"
  ],
  [
    50.367533445358276,
    "$GPVTG,288.98,T,,M,2.350,N,4.353,K,A*3B\r\n"
  ],
  [
    50.368112087249756,
    "$GPGGA,003050.00,3733.68849,N,12656.11796,E,1,08,1.03,56.8,M,18.4,M,,*67\r\n"
  ],
  [
    50.36850452423096,
    "$GPGSA,A,3,08,02,07,21,27,16,30,01,,,,,1.95,1.03,1.66*02\r\n"
  ],
  [
    50.369006872177124,
    "$GPGSV,4,1,13,01,32,187,17,02,60,075,28,07,56,280,25,08,68,016,34*75\r\n"
  ],
  [
    50.369441509246826,
    "$GPGSV,4,2,13,09,05,233,,10,10,069,,14,06,298,12,16,27,099,18*74\r\n"
  ],
  [
    50.36986947059631,
    "$GPGSV,4,3,13,21,60,167,33,23,02,038,,26,00,115,,27,37,051,31*77\r\n"
  ],
  [
    50.370068311691284,
    "$GPGSV,4,4,13,30,30,309,27*44\r\n"
  ],
  [
    50.37038803100586,
    "$GPGLL,3733.68849,N,12656.11796,E,003050.00,A,A*6E\r\n"
  ],
  [
    51.36023950576782,
    "$GPRMC,003051.00,A,3733.68879,N,12656.11727,E,2.075,288.56,230523,,,A*65\r\n"
  ],
  [
    51.36059045791626,
    "$GPVTG,288.56,T,,M,2.075,N,3.843,K,A*30\r\n"
  ],
  [
    51.361183166503906,
    "$GPGGA,003051.00,3733.68879,N,12656.11727,E,1,08,1.03,57.2,M,18.4,M,,*64\r\n"
  ],
  [
    51.36166071891785,
    "$GPGSA,A,3,08,02,07,21,27,16,30,01,,,,,1.95,1.03,1.66*02\r\n"
  ],
  [
    51.36208772659302,
    "$GPGSV,4,1,13,01,32,187,17,02,60,075,28,07,56,280,26,08,68,016,31*73\r\n"
  ],
  [
    51.36227226257324,
    "$GPGSV,4,2,13,09,05,233,,10,10,069,,14,07,298,15,16,27,099,17*7D\r\n"
  ],
  [
    51.36245560646057,
    "$GPGSV,4,3,13,21,60,167,33,23,02,038,,26,00,115,,27,37,051,30*76\r\n"
  ],
  [
    51.36254382133484,
    "$GPGSV,4,4,13,30,30,309,29*4A\r\n"
  ],
  [
    51.36269235610962,
    "$GPGLL,3733.68879,N,12656.11727,E,003051.00,A,A*66\r\n"
  ],
  [
    52.36632180213928,
    "$GPRMC,003052.00,A,3733.68899,N,12656.11642,E,2.145,283.81,230523,,,A*69\r\n"
  ],
  [
    52.36669969558716,
    "$GPVTG,283.81,T,,M,2.145,N,3.973,K,A*31\r\n"
  ],
  [
    52.36730885505676,
    "$GPGGA,003052.00,3733.68899,N,12656.11642,E,1,08,1.03,57.7,M,18.4,M,,*6E\r\n"
  ],
  [
    52.36778521537781,
    "$GPGSA,A,3,08,02,07,21,27,16,30,01,,,,,1.95,1.03,1.66*02\r\n"
  ],
  [
    52.36823296546936,
    "$GPGSV,4,1,13,01,32,187,18,02,60,075,29,07,56,280,27,08,68,016,34*79\r\n"
  ],
  [
    52.36867165565491,
    "$GPGSV,4,2,13,09,05,233,13,10,10,069,,14,07,298,17,16,27,099,16*7C\r\n"
  ],
  [
    52.36907935142517,
    "$GPGSV,4,3,13,21,60,167,33,23,02,038,,26,00,115,,27,37,051,33*75\r\n"
  ],
  [
    52.36927556991577,
    "$GPGSV,4,4,13,30,30,309,29*4A\r\n"
  ],
  [
    52.36960434913635,
    "$GPGLL,3733.68899,N,12656.11642,E,003052.00,A,A*69\r\n"
  ],
  [
    53.363691329956055,
    "$GPRMC,003053.00,A,3733.68918,N,12656.11568,E,2.110,281.74,230523,,,A*63\r\n"
  ],
  [
    53.36400866508484,
    "$GPVTG,281.74,T,,M,2.110,N,3.908,K,A*35\r\n"
  ],
  [
    53.364516496658325,
    "$GPGGA,003053.00,3733.68918,N,12656.11568,E,1,08,1.03,58.1,M,18.4,M,,*65\r\n"
  ],
  [
    53.36496138572693,
    "$GPGSA,A,3,08,02,07,21,27,16,30,01,,,,,1.95,1.03,1.66*02\r\n"
  ],
  [
    53.36544895172119,
    "$GPGSV,4,1,13,01,32,187,17,02,60,075,34,07,56,280,27,08,68,016,31*7F\r\n"
  ],
  [
    53.36589860916138,
    "$GPGSV,4,2,13,09,05,233,13,10,10,069,,14,07,298,17,16,27,100,17*7C\r\n"
  ],
  [
    53.36629843711853,
    "$GPGSV,4,3,13,21,60,167,33,23,02,038,,26,00,115,,27,37,051,23*74\r\n"
  ],
  [
    53.36648941040039,
    "$GPGSV,4,4,13,30,30,309,29*4A\r\n"
  ],
  [
    53.36682319641113,
    "$GPGLL,3733.68918,N,12656.11568,E,003053.00,A,A*6B\r\n"
  ],
  [
    54.3726487159729,
    "$GPRMC,003054.00,A,3733.68940,N,12656.11483,E,2.353,284.11,230523,,,A*6E\r\n"
  ],
  [
    54.3729784488678,
    "$GPVTG,284.11,T,,M,2.353,N,4.358,K,A*3E\r\n"
  ],
  [
    54.373517990112305,
    "$GPGGA,003054.00,3733.68940,N,12656.11483,E,1,08,1.03,58.6,M,18.4,M,,*6C\r\n"
  ],
  [
    54.3739230632782,
    "$GPGSA,A,3,08,02,07,21,27,16,30,01,,,,,1.95,1.03,1.66*02\r\n"
  ],
  [
    54.374356746673584,
    "$GPGSV,4,1,13,01,32,187,16,02,60,075,31,07,56,280,27,08,68,016,32*78\r\n"
  ],
  [
    54.374791383743286,
    "$GPGSV,4,2,13,09,05,233,14,10,10,069,,14,07,298,16,16,27,100,19*74\r\n"
  ],
  [
    54.37519335746765,
    "$GPGSV,4,3,13,21,60,167,33,23,02,038,,26,00,115,,27,37,051,30*76\r\n"
  ],
  [
    54.37538552284241,
    "$GPGSV,4,4,13,30,30,309,28*4B\r\n"
  ],
  [
    54.37572503089905,
    "$GPGLL,3733.68940,N,12656.11483,E,003054.00,A,A*65\r\n"
  ],
  [
    55.37106251716614,
    "$GPRMC,003055.00,A,3733.68966,N,12656.11412,E,2.195,287.19,230523,,,A*60\r\n"
  ],
  [
    55.371408224105835,
    "$GPVTG,287.19,T,,M,2.195,N,4.066,K,A*33\r\n"
  ],
  [
    55.37197995185852,
    "$GPGGA,003055.00,3733.68966,N,12656.11412,E,1,08,1.03,58.6,M,18.4,M,,*61\r\n"
  ],
  [
    55.37242841720581,
    "$GPGSA,A,3,08,02,07,21,27,16,30,01,,,,,1.95,1.03,1.66*02\r\n"
  ],
  [
    55.3728711605072,
    "$GPGSV,4,1,13,01,32,187,16,02,60,075,29,07,56,280,25,08,68,016,34*75\r\n"
  ],
  [
    55.37328243255615,
    "$GPGSV,4,2,13,09,05,233,16,10,10,069,,14,07,298,15,16,27,100,20*7F\r\n"
  ],
  [
    55.37369084358215,
    "$GPGSV,4,3,13,21,60,167,32,23,02,038,,26,00,115,,27,37,051,30*77\r\n"
  ],
  [
    55.373887062072754,
    "$GPGSV,4,4,13,30,30,309,28*4B\r\n"
  ],
  [
    55.374212980270386,
    "$GPGLL,3733.68966,N,12656.11412,E,003055.00,A,A*68\r\n"
  ],
  [
    56.36874771118164,
    "$GPRMC,003056.00,A,3733.69001,N,12656.11344,E,2.180,290.35,230523,,,A*62\r\n"
  ],
  [
    56.36910653114319,
    "$GPVTG,290.35,T,,M,2.180,N,4.038,K,A*34\r\n"
  ],
  [
    56.369659662246704,
    "$GPGGA,003056.00,3733.69001,N,12656.11344,E,1,09,0.96,59.4,M,18.4,M,,*60\r\n"
  ],
  [
    56.37007021903992,
    "$GPGSA,A,3,08,02,07,21,27,16,30,01,09,,,,1.59,0.96,1.26*02\r\n"
  ],
  [
    56.37049913406372,
    "$GPGSV,4,1,13,01,32,187,19,02,60,075,31,07,56,280,25,08,68,016,33*74\r\n"
  ],
  [
    56.37070631980896,
    "$GPGSV,4,2,13,09,05,233,18,10,10,069,,14,07,298,12,16,27,100,21*77\r\n"
  ],
  [
    56.37088966369629,
    "$GPGSV,4,3,13,21,60,167,32,23,02,038,,26,00,115,,27,37,051,34*73\r\n"
  ],
  [
    56.370978116989136,
    "$GPGSV,4,4,13,30,30,309,27*44\r\n"
  ],
  [
    56.37112474441528,
    "$GPGLL,3733.69001,N,12656.11344,E,003056.00,A,A*66\r\n"
  ],
  [
    57.3701171875,
    "$GPRMC,003057.00,A,3733.69035,N,12656.11280,E,2.046,288.92,230523,,,A*62\r\n"
  ],
  [
    57.37046217918396,
    "$GPVTG,288.92,T,,M,2.046,N,3.789,K,A*31\r\n"
  ],
  [
    57.37104296684265,
    "$GPGGA,003057.00,3733.69035,N,12656.11280,E,1,09,0.96,59.7,M,18.4,M,,*6C\r\n"
  ],
  [
    57.37149500846863,
    "$GPGSA,A,3,08,02,07,21,27,16,30,01,09,,,,1.59,0.96,1.26*02\r\n"
  ],
  [
    57.37196898460388,
    "$GPGSV,4,1,13,01,32,187,19,02,60,075,30,07,56,280,31,08,68,016,31*72\r\n"
  ],
  [
    57.372403383255005,
    "$GPGSV,4,2,13,09,05,233,19,10,10,069,,14,07,298,14,16,27,100,21*70\r\n"
  ],
  [
    57.37281775474548,
    "$GPGSV,4,3,13,21,60,167,31,23,02,038,,26,00,115,,27,37,051,29*7C\r\n"
  ],
  [
    57.37301540374756,
    "$GPGSV,4,4,13,30,30,309,28*4B\r\n"
  ],
  [
    57.3733446598053,
    "$GPGLL,3733.69035,N,12656.11280,E,003057.00,A,A*69\r\n"
  ],
  [
    58.36932158470154,
    "$GPRMC,003058.00,A,3733.69057,N,12656.11210,E,1.960,287.67,230523,,,A*6B\r\n"
  ],
  [
    58.369675159454346,
    "$GPVTG,287.67,T,,M,1.960,N,3.630,K,A*39\r\n"
  ],
  [
    58.37023377418518,
    "$GPGGA,003058.00,3733.69057,N,12656.11210,E,1,09,0.96,59.6,M,18.4,M,,*6F\r\n"
  ],
  [
    58.3706419467926,
    "$GPGSA,A,3,08,02,07,21,27,16,30,01,09,,,,1.59,0.96,1.26*02\r\n"
  ],
  [
    58.371063232421875,
    "$GPGSV,4,1,13,01,32,187,19,02,60,075,29,07,56,280,30,08,68,016,32*78\r\n"
  ],
  [
    58.37147355079651,
    "$GPGSV,4,2,13,09,05,233,20,10,10,069,,14,07,298,15,16,27,100,19*70\r\n"
  ],
  [
    58.37188100814819,
    "$GPGSV,4,3,13,21,60,166,31,23,02,038,,26,00,115,,27,37,051,28*7C\r\n"
  ],
  [
    58.37207365036011,
    "$GPGSV,4,4,13,30,30,309,27*44\r\n"
  ],
  [
    58.3723931312561,
    "$GPGLL,3733.69057,N,12656.11210,E,003058.00,A,A*6B\r\n"
  ],
  [
    59.36021423339844,
    "$GPRMC,003059.00,A,3733.69081,N,12656.11148,E,1.897,286.94,230523,,,A*6B\r\n"
  ],
  [
    59.36055088043213,
    "$GPVTG,286.94,T,,M,1.897,N,3.514,K,A*38\r\n"
  ],
  [
    59.361109018325806,
    "$GPGGA,003059.00,3733.69081,N,12656.11148,E,1,09,0.96,59.6,M,18.4,M,,*6B\r\n"
  ],
  [
    59.361544132232666,
    "$GPGSA,A,3,08,02,07,21,27,16,30,01,09,,,,1.59,0.96,1.26*02\r\n"
  ],
  [
    59.362037658691406,
    "$GPGSV,4,1,13,01,32,187,17,02,60,075,29,07,56,280,26,08,68,016,32*71\r\n"
  ],
  [
    59.36246371269226,
    "$GPGSV,4,2,13,09,05,233,21,10,10,069,,14,07,298,15,16,27,100,21*7A\r\n"
  ],
  [
    59.36287188529968,
    "$GPGSV,4,3,13,21,60,166,30,23,02,038,,26,00,115,,27,37,051,27*72\r\n"
  ],
  [
    59.36306285858154,
    "$GPGSV,4,4,13,30,30,309,26*45\r\n"
  ],
  [
    59.3633816242218,
    "$GPGLL,3733.69081,N,12656.11148,E,003059.00,A,A*6F\r\n"
  ],
  [
    60.36931896209717,
    "$GPRMC,003100.00,A,3733.69096,N,12656.11091,E,1.750,284.11,230523,,,A*6E\r\n"
  ],
  [
    60.369680404663086,
    "$GPVTG,284.11,T,,M,1.750,N,3.241,K,A*34\r\n"
  ],
  [
    60.37022805213928,
    "$GPGGA,003100.00,3733.69096,N,12656.11091,E,1,09,0.96,59.7,M,18.4,M,,*64\r\n"
  ],
  [
    60.3707172870636,
    "$GPGSA,A,3,08,02,07,21,27,16,30,01,09,,,,1.58,0.96,1.26*03\r\n"
  ],
  [
    60.371212005615234,
    "$GPGSV,4,1,13,01,32,187,18,02,60,075,24,07,56,280,25,08,68,016,32*70\r\n"
  ],
  [
    60.37164330482483,
    "$GPGSV,4,2,13,09,05,233,20,10,10,069,,14,07,298,14,16,27,100,22*79\r\n"
  ],
  [
    60.37205410003662,
    "$GPGSV,4,3,13,21,60,166,32,23,02,038,,26,00,115,,27,37,051,26*71\r\n"
  ],
  [
    60.37225127220154,
    "$GPGSV,4,4,13,30,30,309,24*47\r\n"
  ],
  [
    60.372665882110596,
    "$GPGLL,3733.69096,N,12656.11091,E,003100.00,A,A*61\r\n"
  ],
  [
    61.369704246520996,
    "$GPRMC,003101.00,A,3733.69082,N,12656.10991,E,2.117,280.03,230523,,,A*63\r\n"
  ],
  [
    61.37005114555359,
    "$GPVTG,280.03,T,,M,2.117,N,3.920,K,A*39\r\n"
  ],
  [
    61.37057447433472,
    "$GPGGA,003101.00,3733.69082,N,12656.10991,E,1,09,0.96,59.6,M,18.4,M,,*69\r\n"
  ],
  [
    61.370985984802246,
    "$GPGSA,A,3,08,02,07,21,27,16,30,01,09,,,,1.58,0.96,1.26*03\r\n"
  ],
  [
    61.371437072753906,
    "$GPGSV,4,1,13,01,32,187,17,02,60,075,30,07,56,280,31,08,68,016,32*7F\r\n"
  ],
  [
    61.371926069259644,
    "$GPGSV,4,2,13,09,05,233,20,10,10,069,,14,07,298,16,16,27,100,22*7B\r\n"
  ],
  [
    61.372336626052856,
    "$GPGSV,4,3,13,21,60,166,35,23,02,038,,26,00,115,,27,37,051,32*73\r\n"
  ],
  [
    61.3725323677063,
    "$GPGSV,4,4,13,30,30,309,25*46\r\n"
  ],
  [
    61.372868061065674,
    "$GPGLL,3733.69082,N,12656.10991,E,003101.00,A,A*6D\r\n"
  ],
  [
    62.370588302612305,
    "$GPRMC,003102.00,A,3733.69096,N,12656.10913,E,1.982,283.02,230523,,,A*6A\r\n"
  ],
  [
    62.37095832824707,
    "$GPVTG,283.02,T,,M,1.982,N,3.670,K,A*36\r\n"
  ],
  [
    62.371487855911255,
    "$GPGGA,003102.00,3733.69096,N,12656.10913,E,1,09,0.96,59.3,M,18.4,M,,*60\r\n"
  ],
  [
    62.37190866470337,
    "$GPGSA,A,3,08,02,07,21,27,16,30,01,09,,,,1.58,0.96,1.26*03\r\n"
  ],
  [
    62.372358322143555,
    "$GPGSV,3,1,12,01,32,187,16,02,60,075,29,07,56,280,25,08,68,016,27*71\r\n"
  ],
  [
    62.372803926467896,
    "$GPGSV,3,2,12,09,05,233,19,10,10,069,,14,07,298,17,16,27,100,21*75\r\n"
  ],
  [
    62.37326693534851,
    "$GPGSV,3,3,12,21,60,166,31,23,02,038,,27,37,051,32,30,30,309,26*7E\r\n"
  ],
  [
    62.37360715866089,
    "$GPGLL,3733.69096,N,12656.10913,E,003102.00,A,A*61\r\n"
  ],
  [
    63.36225986480713,
    "$GPRMC,003103.00,A,3733.69116,N,12656.10837,E,2.048,283.82,230523,,,A*61\r\n"
  ],
  [
    63.36262607574463,
    "$GPVTG,283.82,T,,M,2.048,N,3.793,K,A*3E\r\n"
  ],
  [
    63.36320090293884,
    "$GPGGA,003103.00,3733.69116,N,12656.10837,E,1,09,0.96,59.0,M,18.4,M,,*6C\r\n"
  ],
  [
    63.36369323730469,
    "$GPGSA,A,3,08,02,07,21,27,16,30,01,09,,,,1.58,0.96,1.26*03\r\n"
  ],
  [
    63.364152908325195,
    "$GPGSV,3,1,12,01,32,187,18,02,60,075,29,07,56,280,26,08,68,016,31*7B\r\n"
  ],
  [
    63.36465406417847,
    "$GPGSV,3,2,12,09,05,233,20,10,10,069,,14,07,298,17,16,27,100,21*7F\r\n"
  ],
  [
    63.365100145339966,
    "$GPGSV,3,3,12,21,60,166,26,23,02,038,,27,37,051,31,30,30,309,26*7B\r\n"
  ],
  [
    63.36545777320862,
    "$GPGLL,3733.69116,N,12656.10837,E,003103.00,A,A*6E\r\n"
  ],
  [
    64.36453080177307,
    "$GPRMC,003104.00,A,3733.69140,N,12656.10763,E,1.991,284.08,230523,,,A*60\r\n"
  ],
  [
    64.36488389968872,
    "$GPVTG,284.08,T,,M,1.991,N,3.688,K,A*3E\r\n"
  ],
  [
    64.36536979675293,
    "$GPGGA,003104.00,3733.69140,N,12656.10763,E,1,09,0.96,58.8,M,18.4,M,,*6F\r\n"
  ],
  [
    64.36578559875488,
    "$GPGSA,A,3,08,02,07,21,27,16,30,01,09,,,,1.58,0.96,1.26*03\r\n"
  ],
  [
    64.36622166633606,
    "$GPGSV,3,1,12,01,32,187,18,02,60,075,30,07,56,280,26,08,68,016,30*72\r\n"
  ],
  [
    64.36665487289429,
    "$GPGSV,3,2,12,09,05,233,19,10,10,069,,14,07,298,18,16,27,100,20*7B\r\n"
  ],
  [
    64.36707949638367,
    "$GPGSV,3,3,12,21,60,166,25,23,02,038,,27,37,051,26,30,30,309,28*70\r\n"
  ],
  [
    64.3674042224884,
    "$GPGLL,3733.69140,N,12656.10763,E,003104.00,A,A*64\r\n"
  ],
  [
    65.36681771278381,
    "$GPRMC,003105.00,A,3733.69157,N,12656.10684,E,1.983,282.18,230523,,,A*6B\r\n"
  ],
  [
    65.36716365814209,
    "$GPVTG,282.18,T,,M,1.983,N,3.673,K,A*3E\r\n"
  ],
  [
    65.36771440505981,
    "$GPGGA,003105.00,3733.69157,N,12656.10684,E,1,09,0.96,58.7,M,18.4,M,,*6F\r\n"
  ],
  [
    65.3681206703186,
    "$GPGSA,A,3,08,02,07,21,27,16,30,01,09,,,,1.58,0.96,1.26*03\r\n"
  ],
  [
    65.36857461929321,
    "$GPGSV,3,1,12,01,32,187,18,02,60,075,29,07,56,280,27,08,68,016,30*7B\r\n"
  ],
  [
    65.36900568008423,
    "$GPGSV,3,2,12,09,05,233,18,10,10,069,,14,07,298,18,16,27,100,20*7A\r\n"
  ],
  [
    65.36942982673645,
    "$GPGSV,3,3,12,21,60,166,22,23,02,038,,27,37,051,31,30,30,309,29*70\r\n"
  ],
  [
    65.36976218223572,
    "$GPGLL,3733.69157,N,12656.10684,E,003105.00,A,A*6B\r\n"
  ],
  [
    66.37015104293823,
    "$GPRMC,003106.00,A,3733.69172,N,12656.10598,E,2.187,278.67,230523,,,A*63\r\n"
  ],
  [
    66.3704936504364,
    "$GPVTG,278.67,T,,M,2.187,N,4.049,K,A*34\r\n"
  ],
  [
    66.37106943130493,
    "$GPGGA,003106.00,3733.69172,N,12656.10598,E,1,09,0.96,58.6,M,18.4,M,,*64\r\n"
  ],
  [
    66.37152910232544,
    "$GPGSA,A,3,08,02,07,21,27,16,30,01,09,,,,1.58,0.96,1.26*03\r\n"
  ],
  [
    66.37198758125305,
    "$GPGSV,3,1,12,01,32,187,17,02,60,075,28,07,56,280,28,08,68,016,30*7A\r\n"
  ],
  [
    66.3724217414856,
    "$GPGSV,3,2,12,09,05,233,16,10,10,069,,14,07,298,17,16,27,100,18*70\r\n"
  ],
  [
