[
  [
    0.22709345817565918,
    "$GPRMC,003811.00,A,3733.73556,N,12656.21963,E,0.760,,230523,,,A*70\r\n"
  ],
  [
    0.22740912437438965,
    "$GPVTG,,T,,M,0.760,N,1.408,K,A*2F\r\n"
  ],
  [
    0.227996826171875,
    "$GPGGA,003811.00,3733.73556,N,12656.21963,E,1,06,1.16,33.9,M,18.4,M,,*6C\r\n"
  ],
  [
    0.22841787338256836,
    "$GPGSA,A,3,02,21,27,16,30,01,,,,,,,2.13,1.16,1.79*0A\r\n"
  ],
  [
    0.22888731956481934,
    "$GPGSV,3,1,12,01,36,187,28,02,58,069,21,07,57,274,,08,66,022,08*7F\r\n"
  ],
  [
    0.22933244705200195,
    "$GPGSV,3,2,12,09,03,230,,10,11,067,17,14,09,300,,16,25,102,26*7E\r\n"
  ],
  [
    0.22980284690856934,
    "$GPGSV,3,3,12,21,64,163,27,23,02,035,,27,34,053,24,30,33,307,17*7C\r\n"
  ],
  [
    0.23015427589416504,
    "$GPGLL,3733.73556,N,12656.21963,E,003811.00,A,A*6D\r\n"
  ],
  [
    0.35344719886779785,
    "$GPTXT,01,01,02,u-blox ag - www.u-blox.com*50\r\n"
  ],
  [
    0.35361194610595703,
    "$GPTXT,01,01,02,HW  UBX-G70xx   00070000 *77\r\n"
  ],
  [
    0.35379862785339355,
    "$GPTXT,01,01,02,ROM CORE 1.00 (59842) Jun 27 2012 17:43:52*59\r\n"
  ],
  [
    0.35390138626098633,
    "$GPTXT,01,01,02,PROTVER 14.00*1E\r\n"
  ],
  [
    0.3540339469909668,
    "$GPTXT,01,01,02,ANTSUPERV=AC SD PDoS SR*20\r\n"
  ],
  [
    0.35413241386413574,
    "$GPTXT,01,01,02,ANTSTATUS=OK*3B\r\n"
  ],
  [
    0.35433506965637207,
    "$GPTXT,01,01,02,LLC FFFFFFFF-FFFFFFED-FFFFFFFF-FFFFFFFF-FFFFFFFD*2D\r\n"
  ],
  [
    1.2258484363555908,
    "$GPRMC,003812.00,A,3733.73538,N,12656.21981,E,0.634,,230523,,,A*77\r\n"
  ],
  [
    1.2261543273925781,
    "$GPVTG,,T,,M,0.634,N,1.174,K,A*21\r\n"
  ],
  [
    1.2267367839813232,
    "$GPGGA,003812.00,3733.73538,N,12656.21981,E,1,06,1.16,34.0,M,18.4,M,,*65\r\n"
  ],
  [
    1.2271504402160645,
    "$GPGSA,A,3,02,21,27,16,30,01,,,,,,,2.13,1.16,1.79*0A\r\n"
  ],
  [
    1.227405309677124,
    "$GPGSV,3,1,12,01,36,187,29,02,58,069,23,07,57,274,,08,66,022,*74\r\n"
  ],
  [
    1.2275567054748535,
    "$GPGSV,3,2,12,09,03,230,,10,11,067,19,14,09,300,,16,25,102,26*70\r\n"
  ],
  [
    1.227707862854004,
    "$GPGSV,3,3,12,21,64,163,26,23,02,035,,27,34,053,24,30,33,307,17*7D\r\n"
  ],
  [
    1.2278242111206055,
    "$GPGLL,3733.73538,N,12656.21981,E,003812.00,A,A*6A\r\n"
  ],
  [
    2.2263247966766357,
    "$GPRMC,003813.00,A,3733.73542,N,12656.21989,E,0.337,,230523,,,A*75\r\n"
  ],
  [
    2.226654052734375,
    "$GPVTG,,T,,M,0.337,N,0.623,K,A*23\r\n"
  ],
  [
    2.2271976470947266,
    "$GPGGA,003813.00,3733.73542,N,12656.21989,E,1,06,1.16,33.7,M,18.4,M,,*61\r\n"
  ],
  [
    2.227574586868286,
    "$GPGSA,A,3,02,21,27,16,30,01,,,,,,,2.13,1.16,1.79*0A\r\n"
  ],
  [
    2.2279984951019287,
    "$GPGSV,3,1,12,01,36,187,26,02,58,069,22,07,57,274,,08,66,022,*7A\r\n"
  ],
  [
    2.2284040451049805,
    "$GPGSV,3,2,12,09,03,230,,10,11,067,19,14,09,300,,16,25,102,25*73\r\n"
  ],
  [
    2.228830575942993,
    "$GPGSV,3,3,12,21,64,163,24,23,02,035,,27,34,053,20,30,33,307,17*7B\r\n"
  ],
  [
    2.2291531562805176,
    "$GPGLL,3733.73542,N,12656.21989,E,003813.00,A,A*6E\r\n"
  ],
  [
    3.219651699066162,
    "$GPRMC,003814.00,A,3733.73515,N,12656.22006,E,0.889,,230523,,,A*73\r\n"
  ],
  [
    3.219956874847412,
    "$GPVTG,,T,,M,0.889,N,1.647,K,A*2E\r\n"
  ],
  [
    3.220522880554199,
    "$GPGGA,003814.00,3733.73515,N,12656.22006,E,1,06,1.16,34.3,M,18.4,M,,*6A\r\n"
  ],
  [
    3.2209789752960205,
    "$GPGSA,A,3,02,21,27,16,30,01,,,,,,,2.13,1.16,1.79*0A\r\n"
  ],
  [
    3.221414566040039,
    "$GPGSV,3,1,12,01,36,187,24,02,58,069,21,07,57,274,,08,66,022,*7B\r\n"
  ],
  [
    3.2218334674835205,
    "$GPGSV,3,2,12,09,03,230,,10,11,067,17,14,09,300,,16,25,102,25*7D\r\n"
  ],
  [
    3.2222537994384766,
    "$GPGSV,3,3,12,21,64,163,25,23,02,035,,27,34,053,16,30,33,307,15*7D\r\n"
  ],
  [
    3.2225968837738037,
    "$GPGLL,3733.73515,N,12656.22006,E,003814.00,A,A*66\r\n"
  ],
  [
    4.228622198104858,
    "$GPRMC,003815.00,A,3733.73516,N,12656.21996,E,0.788,,230523,,,A*7C\r\n"
  ],
  [
    4.228918075561523,
    "$GPVTG,,T,,M,0.788,N,1.459,K,A*2D\r\n"
  ],
  [
    4.229461669921875,
    "$GPGGA,003815.00,3733.73516,N,12656.21996,E,1,06,1.16,34.7,M,18.4,M,,*6F\r\n"
  ],
  [
    4.229887962341309,
    "$GPGSA,A,3,02,21,27,16,30,01,,,,,,,2.13,1.16,1.79*0A\r\n"
  ],
  [
    4.23032546043396,
    "$GPGSV,3,1,12,01,36,187,24,02,58,069,22,07,57,274,,08,66,022,05*7D\r\n"
  ],
  [
    4.230796813964844,
    "$GPGSV,3,2,12,09,03,230,,10,11,067,17,14,09,300,,16,25,102,25*7D\r\n"
  ],
  [
    4.231215000152588,
    "$GPGSV,3,3,12,21,64,163,27,23,02,035,,27,34,053,19,30,33,307,18*7D\r\n"
  ],
  [
    4.231549024581909,
    "$GPGLL,3733.73516,N,12656.21996,E,003815.00,A,A*67\r\n"
  ],
  [
    5.227055072784424,
    "$GPRMC,003816.00,A,3733.73535,N,12656.21971,E,0.506,,230523,,,A*73\r\n"
  ],
  [
    5.22735595703125,
    "$GPVTG,,T,,M,0.506,N,0.937,K,A*2D\r\n"
  ],
  [
    5.227915525436401,
    "$GPGGA,003816.00,3733.73535,N,12656.21971,E,1,06,1.16,34.9,M,18.4,M,,*6A\r\n"
  ],
  [
    5.228368282318115,
    "$GPGSA,A,3,02,21,27,16,30,01,,,,,,,2.13,1.16,1.79*0A\r\n"
  ],
  [
    5.228866100311279,
    "$GPGSV,3,1,12,01,36,187,21,02,58,069,20,07,57,274,,08,66,022,15*7B\r\n"
  ],
  [
    5.229271411895752,
    "$GPGSV,3,2,12,09,03,230,,10,11,067,15,14,09,300,,16,25,102,24*7E\r\n"
  ],
  [
    5.229730844497681,
    "$GPGSV,3,3,12,21,64,163,27,23,02,035,,27,34,053,19,30,33,307,21*77\r\n"
  ],
  [
    5.230066299438477,
    "$GPGLL,3733.73535,N,12656.21971,E,003816.00,A,A*6C\r\n"
  ],
  [
    6.225594520568848,
    "$GPRMC,003817.00,A,3733.73534,N,12656.21946,E,0.489,,230523,,,A*71\r\n"
  ],
  [
    6.2258899211883545,
    "$GPVTG,,T,,M,0.489,N,0.905,K,A*2A\r\n"
  ],
  [
    6.2264392375946045,
    "$GPGGA,003817.00,3733.73534,N,12656.21946,E,1,06,1.16,34.8,M,18.4,M,,*6F\r\n"
  ],
  [
    6.226853132247925,
    "$GPGSA,A,3,02,21,27,16,30,01,,,,,,,2.13,1.16,1.79*0A\r\n"
  ],
  [
    6.227291584014893,
    "$GPGSV,3,1,12,01,36,187,20,02,58,069,18,07,57,274,,08,66,022,20*77\r\n"
  ],
  [
    6.227722883224487,
    "$GPGSV,3,2,12,09,03,230,,10,11,067,12,14,09,300,,16,25,102,21*7C\r\n"
  ],
  [
    6.228142261505127,
    "$GPGSV,3,3,12,21,64,163,25,23,02,035,,27,34,053,17,30,33,307,23*79\r\n"
  ],
  [
    6.228466033935547,
    "$GPGLL,3733.73534,N,12656.21946,E,003817.00,A,A*68\r\n"
  ],
  [
    7.231069564819336,
    "$GPRMC,003818.00,A,3733.73545,N,12656.21948,E,0.533,,230523,,,A*76\r\n"
  ],
  [
    7.2313690185546875,
    "$GPVTG,,T,,M,0.533,N,0.988,K,A*2F\r\n"
  ],
  [
    7.2319371700286865,
    "$GPGGA,003818.00,3733.73545,N,12656.21948,E,1,06,1.16,34.7,M,18.4,M,,*67\r\n"
  ],
  [
    7.232358455657959,
    "$GPGSA,A,3,02,21,27,16,30,01,,,,,,,2.13,1.16,1.79*0A\r\n"
  ],
  [
    7.232754945755005,
    "$GPGSV,3,1,12,01,36,187,19,02,58,069,16,07,57,274,,08,66,022,18*78\r\n"
  ],
  [
    7.232906341552734,
    "$GPGSV,3,2,12,09,03,230,,10,11,067,09,14,09,300,,16,25,102,17*73\r\n"
  ],
  [
    7.233062982559204,
    "$GPGSV,3,3,12,21,64,163,23,23,02,035,,27,34,053,13,30,33,307,22*7A\r\n"
  ],
  [
    7.233189582824707,
    "$GPGLL,3733.73545,N,12656.21948,E,003818.00,A,A*6F\r\n"
  ],
  [
    8.21881651878357,
    "$GPRMC,003819.00,A,3733.73550,N,12656.21906,E,0.724,,230523,,,A*7D\r\n"
  ],
  [
    8.219118356704712,
    "$GPVTG,,T,,M,0.724,N,1.341,K,A*25\r\n"
  ],
  [
    8.219712734222412,
    "$GPGGA,003819.00,3733.73550,N,12656.21906,E,1,06,1.30,35.2,M,18.4,M,,*68\r\n"
  ],
  [
    8.220135688781738,
    "$GPGSA,A,3,08,02,21,27,30,01,,,,,,,2.60,1.30,2.25*0F\r\n"
  ],
  [
    8.220637798309326,
    "$GPGSV,3,1,12,01,36,187,20,02,58,069,13,07,57,274,,08,66,022,19*76\r\n"
  ],
  [
    8.220813512802124,
    "$GPGSV,3,2,12,09,03,230,,10,11,067,,14,09,300,,16,25,102,*7C\r\n"
  ],
  [
    8.221003532409668,
    "$GPGSV,3,3,12,21,64,163,20,23,02,035,,27,34,053,10,30,33,307,21*79\r\n"
  ],
  [
    8.221149206161499,
    "$GPGLL,3733.73550,N,12656.21906,E,003819.00,A,A*60\r\n"
  ],
  [
    9.226697444915771,
    "$GPRMC,003820.00,A,3733.73580,N,12656.21828,E,1.700,,230523,,,A*70\r\n"
  ],
  [
    9.226984739303589,
    "$GPVTG,,T,,M,1.700,N,3.148,K,A*2B\r\n"
  ],
  [
    9.227551937103271,
    "$GPGGA,003820.00,3733.73580,N,12656.21828,E,1,05,2.20,35.8,M,18.4,M,,*69\r\n"
  ],
  [
    9.227960586547852,
    "$GPGSA,A,3,08,02,21,30,01,,,,,,,,4.70,2.20,4.15*0A\r\n"
  ],
  [
    9.228442192077637,
    "$GPGSV,3,1,12,01,36,187,21,02,58,069,14,07,57,274,,08,66,022,19*70\r\n"
  ],
  [
    9.228826761245728,
    "$GPGSV,3,2,12,09,03,230,,10,11,067,,14,09,300,,16,25,102,*7C\r\n"
  ],
  [
    9.229236602783203,
    "$GPGSV,3,3,12,21,64,163,20,23,02,035,,27,34,053,08,30,33,307,22*73\r\n"
  ],
  [
    9.229557991027832,
    "$GPGLL,3733.73580,N,12656.21828,E,003820.00,A,A*6A\r\n"
  ],
  [
    10.221340894699097,
    "$GPRMC,003821.00,A,3733.73599,N,12656.21711,E,2.863,,230523,,,A*75\r\n"
  ],
  [
    10.221675634384155,
    "$GPVTG,,T,,M,2.863,N,5.303,K,A*29\r\n"
  ],
  [
    10.222229480743408,
    "$GPGGA,003821.00,3733.73599,N,12656.21711,E,1,05,2.20,36.2,M,18.4,M,,*6C\r\n"
  ],
  [
    10.222590684890747,
    "$GPGSA,A,3,08,02,21,30,01,,,,,,,,4.70,2.20,4.15*0A\r\n"
  ],
  [
    10.223011016845703,
    "$GPGSV,3,1,12,01,36,187,22,02,58,069,14,07,57,274,,08,66,022,21*78\r\n"
  ],
  [
    10.223396301269531,
    "$GPGSV,3,2,12,09,03,230,,10,11,067,,14,09,300,,16,25,102,*7C\r\n"
  ],
  [
    10.22383189201355,
    "$GPGSV,3,3,12,21,64,163,22,23,02,035,,27,34,053,09,30,33,307,21*73\r\n"
  ],
  [
    10.224154233932495,
    "$GPGLL,3733.73599,N,12656.21711,E,003821.00,A,A*66\r\n"
  ],
  [
    11.220364332199097,
    "$GPRMC,003822.00,A,3733.73612,N,12656.21591,E,3.165,,230523,,,A*72\r\n"
  ],
  [
    11.22068476676941,
    "$GPVTG,,T,,M,3.165,N,5.861,K,A*28\r\n"
  ],
  [
    11.221242427825928,
    "$GPGGA,003822.00,3733.73612,N,12656.21591,E,1,05,2.20,36.3,M,18.4,M,,*64\r\n"
  ],
  [
    11.221606254577637,
    "$GPGSA,A,3,08,02,21,30,01,,,,,,,,4.70,2.20,4.15*0A\r\n"
  ],
  [
    11.222033262252808,
    "$GPGSV,3,1,12,01,36,187,22,02,58,069,15,07,57,274,,08,66,022,21*79\r\n"
  ],
  [
    11.222418546676636,
    "$GPGSV,3,2,12,09,03,230,,10,11,067,,14,09,300,,16,25,102,*7C\r\n"
  ],
  [
    11.222846508026123,
    "$GPGSV,3,3,12,21,64,163,24,23,02,035,,27,34,053,09,30,33,307,21*75\r\n"
  ],
  [
    11.223174333572388,
    "$GPGLL,3733.73612,N,12656.21591,E,003822.00,A,A*6F\r\n"
  ],
  [
    12.220927715301514,
    "$GPRMC,003823.00,A,3733.73647,N,12656.21517,E,2.724,,230523,,,A*7F\r\n"
  ],
  [
    12.22124171257019,
    "$GPVTG,,T,,M,2.724,N,5.044,K,A*25\r\n"
  ],
  [
    12.221807956695557,
    "$GPGGA,003823.00,3733.73647,N,12656.21517,E,1,05,2.20,37.2,M,18.4,M,,*6B\r\n"
  ],
  [
    12.222196340560913,
    "$GPGSA,A,3,08,02,21,30,01,,,,,,,,4.70,2.20,4.15*0A\r\n"
  ],
  [
    12.222637414932251,
    "$GPGSV,3,1,12,01,36,187,22,02,58,069,17,07,57,274,07,08,66,022,22*7F\r\n"
  ],
  [
    12.223042249679565,
    "$GPGSV,3,2,12,09,03,230,,10,11,067,,14,09,300,,16,25,102,*7C\r\n"
  ],
  [
    12.223467111587524,
    "$GPGSV,3,3,12,21,64,163,24,23,02,035,,27,34,053,09,30,33,307,21*75\r\n"
  ],
  [
    12.223798990249634,
    "$GPGLL,3733.73647,N,12656.21517,E,003823.00,A,A*60\r\n"
  ],
  [
    13.223286628723145,
    "$GPRMC,003824.00,A,3733.73622,N,12656.21522,E,0.798,,230523,,,A*78\r\n"
  ],
  [
    13.223613739013672,
    "$GPVTG,,T,,M,0.798,N,1.477,K,A*20\r\n"
  ],
  [
    13.224147081375122,
    "$GPGGA,003824.00,3733.73622,N,12656.21522,E,1,05,2.20,37.3,M,18.4,M,,*68\r\n"
  ],
  [
    13.224522590637207,
    "$GPGSA,A,3,08,02,21,30,01,,,,,,,,4.70,2.20,4.15*0A\r\n"
  ],
  [
    13.224980354309082,
    "$GPGSV,3,1,12,01,36,187,21,02,58,069,15,07,57,273,08,08,66,022,20*74\r\n"
  ],
  [
    13.22538948059082,
    "$GPGSV,3,2,12,09,03,230,,10,11,067,,14,09,300,,16,25,102,*7C\r\n"
  ],
  [
    13.225825548171997,
    "$GPGSV,3,3,12,21,64,163,23,23,02,035,,27,34,053,09,30,33,307,20*73\r\n"
  ],
  [
    13.226158618927002,
    "$GPGLL,3733.73622,N,12656.21522,E,003824.00,A,A*62\r\n"
  ],
  [
    14.213904857635498,
    "$GPRMC,003825.00,A,3733.73593,N,12656.21526,E,0.776,,230523,,,A*74\r\n"
  ],
  [
    14.214194059371948,
    "$GPVTG,,T,,M,0.776,N,1.437,K,A*24\r\n"
  ],
  [
    14.21468734741211,
    "$GPGGA,003825.00,3733.73593,N,12656.21526,E,1,05,2.20,37.6,M,18.4,M,,*61\r\n"
  ],
  [
    14.215027332305908,
    "$GPGSA,A,3,08,02,21,30,01,,,,,,,,4.70,2.20,4.15*0A\r\n"
  ],
  [
    14.21544623374939,
    "$GPGSV,3,1,12,01,36,187,23,02,58,069,14,07,57,273,,08,66,022,19*75\r\n"
  ],
  [
    14.215841293334961,
    "$GPGSV,3,2,12,09,03,230,,10,11,067,,14,09,300,,16,25,102,*7C\r\n"
  ],
  [
    14.216264486312866,
    "$GPGSV,3,3,12,21,64,163,23,23,02,035,,27,34,053,08,30,33,307,19*78\r\n"
  ],
  [
    14.216609954833984,
    "$GPGLL,3733.73593,N,12656.21526,E,003825.00,A,A*6E\r\n"
  ],
  [
    15.225009441375732,
    "$GPRMC,003826.00,A,3733.73585,N,12656.21425,E,1.734,,230523,,,A*75\r\n"
  ],
  [
    15.225291967391968,
    "$GPVTG,,T,,M,1.734,N,3.211,K,A*23\r\n"
  ],
  [
    15.225826978683472,
    "$GPGGA,003826.00,3733.73585,N,12656.21425,E,1,05,2.20,38.0,M,18.4,M,,*6E\r\n"
  ],
  [
    15.226165771484375,
    "$GPGSA,A,3,08,02,21,30,01,,,,,,,,4.70,2.20,4.15*0A\r\n"
  ],
  [
    15.226589918136597,
    "$GPGSV,3,1,12,01,36,187,23,02,58,069,14,07,57,273,,08,66,022,18*74\r\n"
  ],
  [
    15.226972103118896,
    "$GPGSV,3,2,12,09,03,230,,10,11,067,,14,09,300,,16,25,102,*7C\r\n"
  ],
  [
    15.227390050888062,
    "$GPGSV,3,3,12,21,64,163,23,23,02,035,,27,34,053,08,30,33,307,21*73\r\n"
  ],
  [
    15.22772216796875,
    "$GPGLL,3733.73585,N,12656.21425,E,003826.00,A,A*68\r\n"
  ],
  [
    16.21598505973816,
    "$GPRMC,003827.00,A,3733.73623,N,12656.21359,E,2.419,,230523,,,A*78\r\n"
  ],
  [
    16.21623158454895,
    "$GPVTG,,T,,M,2.419,N,4.479,K,A*23\r\n"
  ],
  [
    16.216691732406616,
    "$GPGGA,003827.00,3733.73623,N,12656.21359,E,1,05,2.20,37.6,M,18.4,M,,*65\r\n"
  ],
  [
    16.217084646224976,
    "$GPGSA,A,3,08,02,21,30,01,,,,,,,,4.70,2.20,4.15*0A\r\n"
  ],
  [
    16.21751594543457,
    "$GPGSV,3,1,12,01,36,187,23,02,58,069,16,07,57,273,,08,66,022,17*79\r\n"
  ],
  [
    16.217891454696655,
    "$GPGSV,3,2,12,09,03,230,,10,11,066,,14,09,300,,16,25,102,*7D\r\n"
  ],
  [
    16.21830105781555,
    "$GPGSV,3,3,12,21,64,163,22,23,02,035,,27,34,053,08,30,33,307,22*71\r\n"
  ],
  [
    16.218629837036133,
    "$GPGLL,3733.73623,N,12656.21359,E,003827.00,A,A*6A\r\n"
  ],
  [
    17.21698260307312,
    "$GPRMC,003828.00,A,3733.73642,N,12656.21286,E,2.230,,230523,,,A*7E\r\n"
  ],
  [
    17.21728539466858,
    "$GPVTG,,T,,M,2.230,N,4.130,K,A*26\r\n"
  ],
  [
    17.217735052108765,
    "$GPGGA,003828.00,3733.73642,N,12656.21286,E,1,05,2.20,37.5,M,18.4,M,,*6D\r\n"
  ],
  [
    17.217891454696655,
    "$GPGSA,A,3,08,02,21,30,01,,,,,,,,4.70,2.20,4.15*0A\r\n"
  ],
  [
    17.21809148788452,
    "$GPGSV,3,1,12,01,36,187,22,02,58,069,16,07,57,273,,08,66,022,16*79\r\n"
  ],
  [
    17.21841311454773,
    "$GPGSV,3,2,12,09,03,230,,10,11,066,,14,09,300,,16,25,102,*7D\r\n"
  ],
  [
    17.218780040740967,
    "$GPGSV,3,3,12,21,64,163,20,23,02,035,,27,34,053,08,30,33,307,21*70\r\n"
  ],
  [
    17.21902322769165,
    "$GPGLL,3733.73642,N,12656.21286,E,003828.00,A,A*61\r\n"
  ],
  [
    18.217731475830078,
    "$GPRMC,003829.00,A,3733.73660,N,12656.21342,E,0.511,,230523,,,A*70\r\n"
  ],
  [
    18.218014240264893,
    "$GPVTG,,T,,M,0.511,N,0.946,K,A*2D\r\n"
  ],
  [
    18.218549013137817,
    "$GPGGA,003829.00,3733.73660,N,12656.21342,E,1,05,2.20,37.2,M,18.4,M,,*62\r\n"
  ],
  [
    18.218894481658936,
    "$GPGSA,A,3,08,02,21,30,01,,,,,,,,4.70,2.20,4.15*0A\r\n"
  ],
  [
    18.219311237335205,
    "$GPGSV,3,1,12,01,36,187,22,02,58,069,14,07,57,273,,08,66,022,16*7B\r\n"
  ],
  [
    18.21969771385193,
    "$GPGSV,3,2,12,09,03,230,,10,11,066,,14,09,300,,16,25,102,*7D\r\n"
  ],
  [
    18.220115423202515,
    "$GPGSV,3,3,12,21,64,163,18,23,02,035,,27,34,053,07,30,33,307,19*7F\r\n"
  ],
  [
    18.220434188842773,
    "$GPGLL,3733.73660,N,12656.21342,E,003829.00,A,A*69\r\n"
  ],
  [
    19.218462228775024,
    "$GPRMC,003830.00,A,3733.73664,N,12656.21236,E,1.677,,230523,,,A*7C\r\n"
  ],
  [
    19.218591690063477,
    "$GPVTG,,T,,M,1.677,N,3.106,K,A*20\r\n"
  ],
  [
    19.21880578994751,
    "$GPGGA,003830.00,3733.73664,N,12656.21236,E,1,05,2.23,37.2,M,18.4,M,,*6F\r\n"
  ],
  [
    19.218968152999878,
    "$GPGSA,A,3,08,02,21,30,01,,,,,,,,4.98,2.23,4.45*0A\r\n"
  ],
  [
    19.21916913986206,
    "$GPGSV,3,1,12,01,36,187,19,02,58,069,13,07,57,273,06,08,66,022,14*70\r\n"
  ],
  [
    19.219346284866333,
    "$GPGSV,3,2,12,09,03,230,,10,11,066,,14,09,300,,16,25,102,*7D\r\n"
  ],
  [
    19.219545125961304,
    "$GPGSV,3,3,12,21,64,163,18,23,02,035,,27,34,053,08,30,33,307,20*7A\r\n"
  ],
  [
    19.219698429107666,
    "$GPGLL,3733.73664,N,12656.21236,E,003830.00,A,A*67\r\n"
  ],
  [
    20.216942310333252,
    "$GPRMC,003831.00,A,3733.73714,N,12656.21179,E,2.197,,230523,,,A*79\r\n"
  ],
  [
    20.217228412628174,
    "$GPVTG,,T,,M,2.197,N,4.068,K,A*24\r\n"
  ],
  [
    20.21776294708252,
    "$GPGGA,003831.00,3733.73714,N,12656.21179,E,1,05,2.23,37.3,M,18.4,M,,*61\r\n"
  ],
  [
    20.21814775466919,
    "$GPGSA,A,3,08,02,21,30,01,,,,,,,,4.98,2.23,4.45*0A\r\n"
  ],
  [
    20.218613624572754,
    "$GPGSV,3,1,12,01,36,187,16,02,58,069,13,07,57,273,10,08,66,022,15*79\r\n"
  ],
  [
    20.219014406204224,
    "$GPGSV,3,2,12,09,03,230,,10,11,066,,14,09,300,,16,25,102,*7D\r\n"
  ],
  [
    20.21942377090454,
    "$GPGSV,3,3,12,21,64,163,17,23,02,035,,27,34,053,,30,33,307,21*7C\r\n"
  ],
  [
    20.219757080078125,
    "$GPGLL,3733.73714,N,12656.21179,E,003831.00,A,A*68\r\n"
  ],
  [
    21.237735986709595,
    "$GPRMC,003832.00,A,3733.73768,N,12656.21117,E,2.277,,230523,,,A*74\r\n"
  ],
  [
    21.238023042678833,
    "$GPVTG,,T,,M,2.277,N,4.217,K,A*23\r\n"
  ],
  [
    21.238567113876343,
    "$GPGGA,003832.00,3733.73768,N,12656.21117,E,1,04,2.82,37.4,M,18.4,M,,*6C\r\n"
  ],
  [
    21.238998889923096,
    "$GPGSA,A,3,08,02,21,30,,,,,,,,,7.33,2.82,6.77*01\r\n"
  ],
  [
    21.23949909210205,
    "$GPGSV,3,1,12,01,36,187,11,02,58,069,15,07,57,273,15,08,66,022,19*71\r\n"
  ],
  [
    21.23989248275757,
    "$GPGSV,3,2,12,09,03,230,,10,11,066,,14,09,300,,16,25,102,*7D\r\n"
  ],
  [
    21.24031138420105,
    "$GPGSV,3,3,12,21,64,163,15,23,02,035,,27,34,053,,30,33,307,23*7C\r\n"
  ],
  [
    21.24069380760193,
    "$GPGLL,3733.73768,N,12656.21117,E,003832.00,A,A*68\r\n"
  ],
  [
    22.216978311538696,
    "$GPRMC,003833.00,A,3733.73813,N,12656.21076,E,2.447,,230523,,,A*75\r\n"
  ],
  [
    22.2173113822937,
    "$GPVTG,,T,,M,2.447,N,4.531,K,A*25\r\n"
  ],
  [
    22.217901945114136,
    "$GPGGA,003833.00,3733.73813,N,12656.21076,E,1,05,1.62,37.8,M,18.4,M,,*68\r\n"
  ],
  [
    22.21831750869751,
    "$GPGSA,A,3,08,02,07,30,01,,,,,,,,3.64,1.62,3.26*0E\r\n"
  ],
  [
    22.218968152999878,
    "$GPGSV,3,1,12,01,36,187,11,02,58,069,18,07,57,273,17,08,66,022,20*74\r\n"
  ],
  [
    22.21938467025757,
    "$GPGSV,3,2,12,09,03,230,,10,11,066,,14,09,300,,16,24,103,*7D\r\n"
  ],
  [
    22.219820737838745,
    "$GPGSV,3,3,12,21,64,163,12,23,02,035,,27,34,053,,30,33,307,23*7B\r\n"
  ],
  [
    22.220157146453857,
    "$GPGLL,3733.73813,N,12656.21076,E,003833.00,A,A*6C\r\n"
  ],
  [
    23.2182936668396,
    "$GPRMC,003834.00,A,3733.73918,N,12656.21127,E,2.564,,230523,,,A*7D\r\n"
  ],
  [
    23.218667030334473,
    "$GPVTG,,T,,M,2.564,N,4.748,K,A*29\r\n"
  ],
  [
    23.21919274330139,
    "$GPGGA,003834.00,3733.73918,N,12656.21127,E,1,04,2.72,36.5,M,18.4,M,,*6F\r\n"
  ],
  [
    23.219533443450928,
    "$GPGSA,A,3,08,02,07,30,,,,,,,,,6.44,2.72,5.84*04\r\n"
  ],
  [
    23.219963550567627,
    "$GPGSV,3,1,12,01,36,187,09,02,58,069,19,07,57,273,17,08,66,022,20*7C\r\n"
  ],
  [
    23.22034502029419,
    "$GPGSV,3,2,12,09,03,230,,10,11,066,,14,09,300,,16,24,103,*7D\r\n"
  ],
  [
    23.22081732749939,
    "$GPGSV,3,3,12,21,64,163,08,23,02,035,,27,34,053,,30,33,307,21*72\r\n"
  ],
  [
    23.221163034439087,
    "$GPGLL,3733.73918,N,12656.21127,E,003834.00,A,A*64\r\n"
  ],
  [
    24.22916865348816,
    "$GPRMC,003835.00,A,3733.74010,N,12656.21066,E,3.281,,230523,,,A*73\r\n"
  ],
  [
    24.2294602394104,
    "$GPVTG,,T,,M,3.281,N,6.077,K,A*2D\r\n"
  ],
  [
    24.23008108139038,
    "$GPGGA,003835.00,3733.74010,N,12656.21066,E,1,04,2.72,35.9,M,18.4,M,,*63\r\n"
  ],
  [
    24.23042106628418,
    "$GPGSA,A,3,08,02,07,30,,,,,,,,,6.44,2.72,5.84*04\r\n"
  ],
  [
    24.230865001678467,
    "$GPGSV,3,1,12,01,36,187,,02,58,069,20,07,57,273,18,08,66,022,19*7A\r\n"
  ],
  [
    24.23124933242798,
    "$GPGSV,3,2,12,09,03,230,,10,11,066,,14,09,300,,16,24,103,*7D\r\n"
  ],
  [
    24.231660842895508,
    "$GPGSV,3,3,12,21,64,163,,23,02,035,,27,34,053,,30,33,307,20*7B\r\n"
  ],
  [
    24.231980800628662,
    "$GPGLL,3733.74010,N,12656.21066,E,003835.00,A,A*67\r\n"
  ],
  [
    25.20945930480957,
    "$GPRMC,003836.00,A,3733.74013,N,12656.20985,E,2.114,,230523,,,A*78\r\n"
  ],
  [
    25.20978546142578,
    "$GPVTG,,T,,M,2.114,N,3.915,K,A*2B\r\n"
  ],
  [
    25.21034812927246,
    "$GPGGA,003836.00,3733.74013,N,12656.20985,E,1,04,3.55,36.9,M,18.4,M,,*61\r\n"
  ],
  [
    25.21083354949951,
    "$GPGSA,A,3,08,02,07,30,,,,,,,,,7.31,3.55,6.38*07\r\n"
  ],
  [
    25.211259841918945,
    "$GPGSV,3,1,12,01,36,187,,02,58,069,18,07,57,273,17,08,66,022,17*70\r\n"
  ],
  [
    25.21165657043457,
    "$GPGSV,3,2,12,09,03,230,,10,11,066,,14,09,300,,16,24,103,*7D\r\n"
  ],
  [
    25.212048292160034,
    "$GPGSV,3,3,12,21,64,163,,23,02,035,,27,34,053,,30,33,307,19*71\r\n"
  ],
  [
    25.21236753463745,
    "$GPGLL,3733.74013,N,12656.20985,E,003836.00,A,A*62\r\n"
  ],
  [
    26.22145438194275,
    "$GPRMC,003837.00,A,3733.74111,N,12656.20970,E,2.876,,230523,,,A*7D\r\n"
  ],
  [
    26.22176957130432,
    "$GPVTG,,T,,M,2.876,N,5.326,K,A*2A\r\n"
  ],
  [
    26.222326040267944,
    "$GPGGA,003837.00,3733.74111,N,12656.20970,E,1,04,3.55,37.4,M,18.4,M,,*65\r\n"
  ],
  [
    26.222752571105957,
    "$GPGSA,A,3,08,02,07,30,,,,,,,,,7.31,3.55,6.39*06\r\n"
  ],
  [
    26.22318935394287,
    "$GPGSV,3,1,12,01,36,187,,02,58,069,14,07,57,273,16,08,66,022,16*7C\r\n"
  ],
  [
    26.223605155944824,
    "$GPGSV,3,2,12,09,03,230,,10,11,066,,14,09,300,,16,24,103,*7D\r\n"
  ],
  [
    26.224002838134766,
    "$GPGSV,3,3,12,21,64,163,,23,02,035,,27,34,053,,30,33,307,17*7F\r\n"
  ],
  [
    26.224320888519287,
    "$GPGLL,3733.74111,N,12656.20970,E,003837.00,A,A*6A\r\n"
  ],
  [
    27.215004444122314,
    "$GPRMC,003838.00,A,3733.74169,N,12656.20992,E,2.764,,230523,,,A*7D\r\n"
  ],
  [
    27.215309143066406,
    "$GPVTG,,T,,M,2.764,N,5.119,K,A*28\r\n"
  ],
  [
    27.21591877937317,
    "$GPGGA,003838.00,3733.74169,N,12656.20992,E,1,04,3.55,38.6,M,18.4,M,,*64\r\n"
  ],
  [
    27.216325759887695,
    "$GPGSA,A,3,08,02,07,30,,,,,,,,,7.31,3.55,6.39*06\r\n"
  ],
  [
    27.216857194900513,
    "$GPGSV,3,1,12,01,36,187,,02,58,069,12,07,57,273,14,08,66,022,15*7B\r\n"
  ],
  [
    27.217239141464233,
    "$GPGSV,3,2,12,09,03,230,,10,11,066,,14,09,300,,16,24,103,*7D\r\n"
  ],
  [
    27.217678546905518,
    "$GPGSV,3,3,12,21,64,163,,23,02,035,,27,34,053,,30,33,307,16*7E\r\n"
  ],
  [
    27.218000650405884,
    "$GPGLL,3733.74169,N,12656.20992,E,003838.00,A,A*66\r\n"
  ],
  [
    28.207213640213013,
    "$GPRMC,003839.00,A,3733.74285,N,12656.20876,E,4.023,,230523,,,A*74\r\n"
  ],
  [
    28.20753026008606,
    "$GPVTG,,T,,M,4.023,N,7.451,K,A*21\r\n"
  ],
  [
    28.208083152770996,
    "$GPGGA,003839.00,3733.74285,N,12656.20876,E,1,04,4.13,39.1,M,18.4,M,,*6C\r\n"
  ],
  [
    28.20847201347351,
    "$GPGSA,A,3,08,02,07,30,,,,,,,,,7.66,4.13,6.45*0A\r\n"
  ],
  [
    28.208977222442627,
    "$GPGSV,3,1,12,01,36,187,,02,58,069,13,07,57,273,15,08,66,022,14*7A\r\n"
  ],
  [
    28.20936679840088,
    "$GPGSV,3,2,12,09,03,230,,10,11,066,,14,09,300,,16,24,103,*7D\r\n"
  ],
  [
    28.20977520942688,
    "$GPGSV,3,3,12,21,64,163,,23,02,035,,27,34,053,,30,33,307,19*71\r\n"
  ],
  [
    28.210097789764404,
    "$GPGLL,3733.74285,N,12656.20876,E,003839.00,A,A*6D\r\n"
  ],
  [
    29.209445238113403,
    "$GPRMC,003840.00,A,3733.74320,N,12656.20767,E,3.551,,230523,,,A*7C\r\n"
  ],
  [
    29.20976209640503,
    "$GPVTG,,T,,M,3.551,N,6.576,K,A*23\r\n"
  ],
  [
    29.210313320159912,
    "$GPGGA,003840.00,3733.74320,N,12656.20767,E,1,04,4.13,40.1,M,18.4,M,,*6D\r\n"
  ],
  [
    29.210702896118164,
    "$GPGSA,A,3,08,02,07,30,,,,,,,,,7.66,4.13,6.45*0A\r\n"
  ],
  [
    29.211138010025024,
    "$GPGSV,3,1,12,01,36,187,,02,58,069,10,07,57,273,15,08,66,022,13*7E\r\n"
  ],
  [
    29.211545944213867,
    "$GPGSV,3,2,12,09,03,230,,10,11,066,,14,09,300,,16,24,103,*7D\r\n"
  ],
  [
    29.211952447891235,
    "$GPGSV,3,3,12,21,64,163,,23,02,035,,27,34,053,,30,33,307,18*70\r\n"
  ],
  [
    29.21228265762329,
    "$GPGLL,3733.74320,N,12656.20767,E,003840.00,A,A*62\r\n"
  ],
  [
    30.203933238983154,
    "$GPRMC,003841.00,V,,,,,,,230523,,,N*76\r\n"
  ],
  [
    30.20416760444641,
    "$GPVTG,,,,,,,,,N*30\r\n"
  ],
  [
    30.20448064804077,
    "$GPGGA,003841.00,,,,,0,00,99.99,,,,,,*68\r\n"
  ],
  [
    30.204869747161865,
    "$GPGSA,A,1,,,,,,,,,,,,,99.99,99.99,99.99*30\r\n"
  ],
  [
    30.20530414581299,
    "$GPGSV,3,1,12,01,36,187,,02,58,069,09,07,57,273,13,08,66,022,09*7B\r\n"
  ],
  [
    30.205713272094727,
    "$GPGSV,3,2,12,09,03,230,,10,11,066,,14,09,300,,16,24,103,*7D\r\n"
  ],
  [
    30.20612668991089,
    "$GPGSV,3,3,12,21,64,163,,23,02,035,,27,34,053,,30,33,307,17*7F\r\n"
  ],
  [
    30.206318855285645,
    "$GPGLL,,,,,003841.00,V,N*44\r\n"
  ],
  [
    31.199015855789185,
    "$GPRMC,003842.00,V,,,,,,,230523,,,N*75\r\n"
  ],
  [
    31.199214935302734,
    "$GPVTG,,,,,,,,,N*30\r\n"
  ],
  [
    31.199538707733154,
    "$GPGGA,003842.00,,,,,0,00,99.99,,,,,,*6B\r\n"
  ],
  [
    31.19985270500183,
    "$GPGSA,A,1,,,,,,,,,,,,,99.99,99.99,99.99*30\r\n"
  ],
  [
    31.200329542160034,
    "$GPGSV,3,1,12,01,36,187,,02,58,069,09,07,57,273,09,08,66,022,*79\r\n"
  ],
  [
    31.200817108154297,
    "$GPGSV,3,2,12,09,03,230,,10,11,066,,14,09,300,,16,24,103,*7D\r\n"
  ],
  [
    31.20123267173767,
    "$GPGSV,3,3,12,21,64,163,,23,02,035,,27,34,053,,30,33,307,14*7C\r\n"
  ],
  [
    31.201422691345215,
    "$GPGLL,,,,,003842.00,V,N*47\r\n"
  ],
  [
    32.201664686203,
    "$GPRMC,003843.00,V,,,,,,,230523,,,N*74\r\n"
  ],
  [
    32.20185875892639,
    "$GPVTG,,,,,,,,,N*30\r\n"
  ],
  [
    32.20217990875244,
    "$GPGGA,003843.00,,,,,0,00,99.99,,,,,,*6A\r\n"
  ],
  [
    32.202539682388306,
    "$GPGSA,A,1,,,,,,,,,,,,,99.99,99.99,99.99*30\r\n"
  ],
  [
    32.20302200317383,
    "$GPGSV,3,1,12,01,36,187,,02,58,069,09,07,57,273,08,08,66,022,*78\r\n"
  ],
  [
    32.203468322753906,
    "$GPGSV,3,2,12,09,03,230,,10,11,066,,14,09,300,,16,24,103,*7D\r\n"
  ],
  [
    32.203888177871704,
    "$GPGSV,3,3,12,21,64,163,,23,02,035,,27,34,053,,30,33,307,13*7B\r\n"
  ],
  [
    32.20407843589783,
    "$GPGLL,,,,,003843.00,V,N*46\r\n"
  ],
  [
    33.20735430717468,
    "$GPRMC,003844.00,V,,,,,,,230523,,,N*73\r\n"
  ],
  [
    33.20758867263794,
    "$GPVTG,,,,,,,,,N*30\r\n"
  ],
  [
    33.20793437957764,
    "$GPGGA,003844.00,,,,,0,00,99.99,,,,,,*6D\r\n"
  ],
  [
    33.2082896232605,
    "$GPGSA,A,1,,,,,,,,,,,,,99.99,99.99,99.99*30\r\n"
  ],
  [
    33.20886468887329,
    "$GPGSV,3,1,12,01,36,187,,02,58,069,13,07,57,273,08,08,66,022,*73\r\n"
  ],
  [
    33.209306716918945,
    "$GPGSV,3,2,12,09,03,230,,10,11,066,,14,09,300,,16,24,103,*7D\r\n"
  ],
  [
    33.20972681045532,
    "$GPGSV,3,3,12,21,64,163,,23,02,035,,27,34,053,,30,33,307,14*7C\r\n"
  ],
  [
    33.20992040634155,
    "$GPGLL,,,,,003844.00,V,N*41\r\n"
  ],
  [
    34.200801610946655,
    "$GPRMC,003845.00,V,,,,,,,230523,,,N*72\r\n"
  ],
  [
    34.20099687576294,
    "$GPVTG,,,,,,,,,N*30\r\n"
  ],
  [
    34.20125913619995,
    "$GPGGA,003845.00,,,,,0,00,99.99,,,,,,*6C\r\n"
  ],
  [
    34.20156002044678,
    "$GPGSA,A,1,,,,,,,,,,,,,99.99,99.99,99.99*30\r\n"
  ],
  [
    34.20197296142578,
    "$GPGSV,3,1,12,01,36,187,,02,58,069,13,07,57,273,08,08,66,022,03*70\r\n"
  ],
  [
    34.20234751701355,
    "$GPGSV,3,2,12,09,03,230,,10,11,066,,14,09,300,,16,24,103,*7D\r\n"
  ],
  [
    34.202744007110596,
    "$GPGSV,3,3,12,21,64,163,,23,02,035,,27,34,053,,30,33,307,14*7C\r\n"
  ],
  [
    34.202924489974976,
    "$GPGLL,,,,,003845.00,V,N*40\r\n"
  ],
  [
    35.20502257347107,
    "$GPRMC,003846.00,V,,,,,,,230523,,,N*71\r\n"
  ],
  [
    35.205219984054565,
    "$GPVTG,,,,,,,,,N*30\r\n"
  ],
  [
    35.205549001693726,
    "$GPGGA,003846.00,,,,,0,00,99.99,,,,,,*6F\r\n"
  ],
  [
    35.20590376853943,
    "$GPGSA,A,1,,,,,,,,,,,,,99.99,99.99,99.99*30\r\n"
  ],
  [
    35.206406593322754,
    "$GPGSV,3,1,12,01,36,187,,02,58,069,14,07,57,273,08,08,66,022,07*73\r\n"
  ],
  [
    35.20710873603821,
    "$GPGSV,3,2,12,09,03,230,,10,11,066,,14,09,300,,16,24,103,*7D\r\n"
  ],
  [
    35.20781111717224,
    "$GPGSV,3,3,12,21,64,163,,23,02,035,,27,34,053,,30,33,307,13*7B\r\n"
  ],
  [
    35.20810890197754,
    "$GPGLL,,,,,003846.00,V,N*43\r\n"
  ],
  [
    36.201709270477295,
    "$GPRMC,003847.00,V,,,,,,,230523,,,N*70\r\n"
  ],
  [
    36.201905965805054,
    "$GPVTG,,,,,,,,,N*30\r\n"
  ],
  [
    36.202221155166626,
    "$GPGGA,003847.00,,,,,0,00,99.99,,,,,,*6E\r\n"
  ],
  [
    36.202608823776245,
    "$GPGSA,A,1,,,,,,,,,,,,,99.99,99.99,99.99*30\r\n"
  ],
  [
    36.203078746795654,
    "$GPGSV,3,1,12,01,36,187,,02,58,069,14,07,57,273,08,08,66,022,10*75\r\n"
  ],
  [
    36.20350527763367,
    "$GPGSV,3,2,12,09,03,230,,10,11,066,,14,09,300,,16,24,103,*7D\r\n"
  ],
  [
    36.20392179489136,
    "$GPGSV,3,3,12,21,64,163,,23,02,035,,27,34,053,,30,33,307,12*7A\r\n"
  ],
  [
    36.204113721847534,
    "$GPGLL,,,,,003847.00,V,N*42\r\n"
  ],
  [
    37.20285487174988,
    "$GPRMC,003848.00,V,,,,,,,230523,,,N*7F\r\n"
  ],
  [
    37.20303750038147,
    "$GPVTG,,,,,,,,,N*30\r\n"
  ],
  [
    37.203343868255615,
    "$GPGGA,003848.00,,,,,0,00,99.99,,,,,,*61\r\n"
  ],
  [
    37.203664779663086,
    "$GPGSA,A,1,,,,,,,,,,,,,99.99,99.99,99.99*30\r\n"
  ],
  [
    37.20410108566284,
    "$GPGSV,3,1,12,01,36,187,,02,58,069,11,07,57,273,08,08,66,022,12*72\r\n"
  ],
  [
    37.204508543014526,
    "$GPGSV,3,2,12,09,03,230,,10,11,066,,14,09,300,,16,24,103,*7D\r\n"
  ],
  [
    37.204959869384766,
    "$GPGSV,3,3,12,21,64,163,,23,02,035,,27,34,053,,30,33,307,13*7B\r\n"
  ],
  [
    37.205151319503784,
    "$GPGLL,,,,,003848.00,V,N*4D\r\n"
  ],
  [
    38.19427824020386,
    "$GPRMC,003849.00,V,,,,,,,230523,,,N*7E\r\n"
  ],
  [
    38.19451880455017,
    "$GPVTG,,,,,,,,,N*30\r\n"
  ],
  [
    38.194801807403564,
    "$GPGGA,003849.00,,,,,0,00,99.99,,,,,,*60\r\n"
  ],
  [
    38.19510579109192,
    "$GPGSA,A,1,,,,,,,,,,,,,99.99,99.99,99.99*30\r\n"
  ],
  [
    38.19555449485779,
    "$GPGSV,3,1,12,01,36,187,,02,58,069,09,07,57,273,08,08,66,022,14*7D\r\n"
  ],
  [
    38.19596266746521,
    "$GPGSV,3,2,12,09,03,230,,10,11,066,,14,09,300,,16,24,103,*7D\r\n"
  ],
  [
    38.19637608528137,
    "$GPGSV,3,3,12,21,64,163,,23,02,035,,27,34,053,,30,33,307,14*7C\r\n"
  ],
  [
    38.1965765953064,
    "$GPGLL,,,,,003849.00,V,N*4C\r\n"
  ],
  [
    39.20595073699951,
    "$GPRMC,003850.00,A,3733.75165,N,12656.19932,E,4.153,,230523,,,A*7A\r\n"
  ],
  [
    39.20624899864197,
    "$GPVTG,,T,,M,4.153,N,7.692,K,A*2A\r\n"
  ],
  [
    39.20677661895752,
    "$GPGGA,003850.00,3733.75165,N,12656.19932,E,1,03,3.36,33.8,M,18.4,M,,*60\r\n"
  ],
  [
    39.207103967666626,
    "$GPGSA,A,2,08,07,30,,,,,,,,,,3.51,3.36,1.00*0F\r\n"
  ],
  [
    39.20753312110901,
    "$GPGSV,3,1,12,01,36,187,,02,58,069,,07,57,273,12,08,66,022,13*78\r\n"
  ],
  [
    39.20793151855469,
    "$GPGSV,3,2,12,09,03,230,,10,11,066,,14,09,300,,16,24,103,*7D\r\n"
  ],
  [
    39.20833992958069,
    "$GPGSV,3,3,12,21,64,163,,23,02,035,,27,34,053,,30,33,307,17*7F\r\n"
  ],
  [
    39.20870304107666,
    "$GPGLL,3733.75165,N,12656.19932,E,003850.00,A,A*65\r\n"
  ],
  [
    40.20444345474243,
    "$GPRMC,003851.00,A,3733.74844,N,12656.19635,E,3.857,,230523,,,A*72\r\n"
  ],
  [
    40.20474672317505,
    "$GPVTG,,T,,M,3.857,N,7.144,K,A*2C\r\n"
  ],
  [
    40.20528507232666,
    "$GPGGA,003851.00,3733.74844,N,12656.19635,E,1,03,3.36,33.4,M,18.4,M,,*6E\r\n"
  ],
  [
    40.205663204193115,
    "$GPGSA,A,2,08,07,30,,,,,,,,,,3.51,3.36,1.00*0F\r\n"
  ],
  [
    40.206156969070435,
    "$GPGSV,3,1,12,01,36,187,,02,58,069,05,07,57,273,16,08,66,022,13*79\r\n"
  ],
  [
    40.20659303665161,
    "$GPGSV,3,2,12,09,03,230,,10,11,066,,14,09,300,,16,24,103,*7D\r\n"
  ],
  [
    40.206979513168335,
    "$GPGSV,3,3,12,21,64,163,,23,02,035,,27,34,053,,30,33,307,19*71\r\n"
  ],
  [
    40.20729351043701,
    "$GPGLL,3733.74844,N,12656.19635,E,003851.00,A,A*67\r\n"
  ],
  [
    41.20486617088318,
    "$GPRMC,003852.00,A,3733.74965,N,12656.19742,E,3.526,,230523,,,A*79\r\n"
  ],
  [
    41.20519280433655,
    "$GPVTG,,T,,M,3.526,N,6.530,K,A*21\r\n"
  ],
  [
    41.2057728767395,
    "$GPGGA,003852.00,3733.74965,N,12656.19742,E,1,03,3.36,33.5,M,18.4,M,,*6F\r\n"
  ],
  [
    41.206146478652954,
    "$GPGSA,A,2,08,07,30,,,,,,,,,,3.51,3.36,1.00*0F\r\n"
  ],
  [
    41.20662450790405,
    "$GPGSV,3,1,12,01,36,187,,02,58,069,09,07,57,273,18,08,66,022,13*7B\r\n"
  ],
  [
    41.207029819488525,
    "$GPGSV,3,2,12,09,03,230,,10,11,066,,14,09,300,,16,24,103,*7D\r\n"
  ],
  [
    41.20744872093201,
    "$GPGSV,3,3,12,21,64,163,,23,02,035,,27,34,053,,30,33,307,21*7A\r\n"
  ],
  [
    41.20779323577881,
    "$GPGLL,3733.74965,N,12656.19742,E,003852.00,A,A*67\r\n"
  ],
  [
    42.205280780792236,
    "$GPRMC,003853.00,A,3733.74916,N,12656.19776,E,2.848,,230523,,,A*7F\r\n"
  ],
  [
    42.20561361312866,
    "$GPVTG,,T,,M,2.848,N,5.275,K,A*20\r\n"
  ],
  [
    42.20619034767151,
    "$GPGGA,003853.00,3733.74916,N,12656.19776,E,1,03,3.36,33.5,M,18.4,M,,*6D\r\n"
  ],
  [
    42.20652961730957,
    "$GPGSA,A,2,08,07,30,,,,,,,,,,3.50,3.36,1.00*0E\r\n"
  ],
  [
    42.206981897354126,
    "$GPGSV,3,1,12,01,36,187,,02,58,069,14,07,57,273,20,08,66,022,26*7A\r\n"
  ],
  [
    42.20737838745117,
    "$GPGSV,3,2,12,09,03,230,,10,11,066,,14,09,300,,16,24,103,*7D\r\n"
  ],
  [
    42.20781326293945,
    "$GPGSV,3,3,12,21,64,163,,23,02,035,,27,34,053,,30,33,307,22*79\r\n"
  ],
  [
    42.20814633369446,
    "$GPGLL,3733.74916,N,12656.19776,E,003853.00,A,A*65\r\n"
  ],
  [
    43.217299938201904,
    "$GPRMC,003854.00,A,3733.74766,N,12656.19670,E,2.461,,230523,,,A*71\r\n"
  ],
  [
    43.21773624420166,
    "$GPVTG,,T,,M,2.461,N,4.557,K,A*21\r\n"
  ],
  [
    43.21832895278931,
    "$GPGGA,003854.00,3733.74766,N,12656.19670,E,1,03,3.36,33.8,M,18.4,M,,*69\r\n"
  ],
  [
    43.21873617172241,
    "$GPGSA,A,2,08,07,30,,,,,,,,,,3.50,3.36,1.00*0E\r\n"
  ],
  [
    43.21923589706421,
    "$GPGSV,3,1,12,01,36,187,,02,58,069,16,07,57,273,23,08,66,022,17*79\r\n"
  ],
  [
    43.2197060585022,
    "$GPGSV,3,2,12,09,03,230,,10,11,066,23,14,09,300,,16,24,103,*7C\r\n"
  ],
  [
    43.220189809799194,
    "$GPGSV,3,3,12,21,64,163,,23,02,035,,27,34,053,,30,33,307,25*7E\r\n"
  ],
  [
    43.22059869766235,
    "$GPGLL,3733.74766,N,12656.19670,E,003854.00,A,A*6C\r\n"
  ],
  [
    44.208722829818726,
    "$GPRMC,003855.00,A,3733.74729,N,12656.19608,E,2.325,,230523,,,A*73\r\n"
  ],
  [
    44.20917201042175,
    "$GPVTG,,T,,M,2.325,N,4.306,K,A*24\r\n"
  ],
  [
    44.20971179008484,
    "$GPGGA,003855.00,3733.74729,N,12656.19608,E,1,04,4.13,33.3,M,18.4,M,,*60\r\n"
  ],
  [
    44.21009564399719,
    "$GPGSA,A,3,08,02,07,30,,,,,,,,,7.69,4.13,6.49*09\r\n"
  ],
  [
    44.21057152748108,
    "$GPGSV,3,1,12,01,36,187,,02,58,069,18,07,57,273,23,08,66,022,15*75\r\n"
  ],
  [
    44.211010694503784,
    "$GPGSV,3,2,12,09,03,230,,10,11,066,21,14,09,300,,16,24,103,*7E\r\n"
  ],
  [
    44.21146559715271,
    "$GPGSV,3,3,12,21,64,163,,23,02,035,,27,34,053,,30,33,307,25*7E\r\n"
  ],
  [
    44.21185851097107,
    "$GPGLL,3733.74729,N,12656.19608,E,003855.00,A,A*69\r\n"
  ],
  [
    45.21903085708618,
    "$GPRMC,003856.00,A,3733.74616,N,12656.19642,E,2.040,,230523,,,A*73\r\n"
  ],
  [
    45.21946454048157,
    "$GPVTG,,T,,M,2.040,N,3.779,K,A*2F\r\n"
  ],
  [
    45.22009205818176,
    "$GPGGA,003856.00,3733.74616,N,12656.19642,E,1,04,3.56,33.9,M,18.4,M,,*6C\r\n"
  ],
  [
    45.22051763534546,
    "$GPGSA,A,3,08,02,07,30,,,,,,,,,7.35,3.56,6.43*0C\r\n"
  ],
  [
    45.22103667259216,
    "$GPGSV,3,1,12,01,36,187,,02,58,069,19,07,57,273,22,08,66,022,17*77\r\n"
  ],
  [
    45.22150707244873,
    "$GPGSV,3,2,12,09,03,230,,10,11,066,19,14,09,300,,16,24,103,*75\r\n"
  ],
  [
    45.221991539001465,
    "$GPGSV,3,3,12,21,64,163,,23,02,035,,27,34,053,,30,33,307,24*7F\r\n"
  ],
  [
    45.22237777709961,
    "$GPGLL,3733.74616,N,12656.19642,E,003856.00,A,A*69\r\n"
  ],
  [
    46.21060585975647,
    "$GPRMC,003857.00,A,3733.74402,N,12656.19283,E,3.116,,230523,,,A*7F\r\n"
  ],
  [
    46.210907220840454,
    "$GPVTG,,T,,M,3.116,N,5.771,K,A*22\r\n"
  ],
  [
    46.211459159851074,
    "$GPGGA,003857.00,3733.74402,N,12656.19283,E,1,04,3.56,34.7,M,18.4,M,,*6A\r\n"
  ],
  [
    46.211857318878174,
    "$GPGSA,A,3,08,02,07,30,,,,,,,,,7.35,3.56,6.44*0B\r\n"
  ],
  [
    46.212302923202515,
    "$GPGSV,3,1,12,01,36,187,,02,58,069,19,07,57,273,21,08,66,022,17*74\r\n"
  ],
  [
    46.21272373199463,
    "$GPGSV,3,2,12,09,03,230,,10,11,066,17,14,09,300,,16,24,103,*7B\r\n"
  ],
  [
    46.21313667297363,
    "$GPGSV,3,3,12,21,64,163,,23,02,035,,27,34,053,,30,33,307,22*79\r\n"
  ],
  [
    46.21347427368164,
    "$GPGLL,3733.74402,N,12656.19283,E,003857.00,A,A*66\r\n"
  ],
  [
    47.211374044418335,
    "$GPRMC,003858.00,A,3733.74382,N,12656.19175,E,3.287,,230523,,,A*7E\r\n"
  ],
  [
    47.21169137954712,
    "$GPVTG,,T,,M,3.287,N,6.087,K,A*24\r\n"
  ],
  [
    47.212175369262695,
    "$GPGGA,003858.00,3733.74382,N,12656.19175,E,1,04,3.56,34.4,M,18.4,M,,*63\r\n"
  ],
  [
    47.21250677108765,
    "$GPGSA,A,3,08,02,07,30,,,,,,,,,7.36,3.56,6.44*08\r\n"
  ],
  [
    47.21291947364807,
    "$GPGSV,3,1,12,01,36,187,,02,58,069,18,07,57,273,20,08,66,022,19*7A\r\n"
  ],
  [
    47.2133047580719,
    "$GPGSV,3,2,12,09,03,230,,10,11,066,16,14,09,300,,16,24,103,*7A\r\n"
  ],
  [
    47.21370220184326,
    "$GPGSV,3,3,12,21,64,163,,23,02,035,,27,34,053,,30,33,307,21*7A\r\n"
  ],
  [
    47.21398687362671,
    "$GPGLL,3733.74382,N,12656.19175,E,003858.00,A,A*6C\r\n"
  ],
  [
    48.2115535736084,
    "$GPRMC,003859.00,A,3733.74280,N,12656.19136,E,2.779,,230523,,,A*7E\r\n"
  ],
  [
    48.21196961402893,
    "$GPVTG,,T,,M,2.779,N,5.147,K,A*2F\r\n"
  ],
  [
    48.21261763572693,
    "$GPGGA,003859.00,3733.74280,N,12656.19136,E,1,04,3.56,33.9,M,18.4,M,,*6C\r\n"
  ],
  [
    48.21303987503052,
    "$GPGSA,A,3,08,02,07,30,,,,,,,,,7.36,3.56,6.44*08\r\n"
  ],
  [
    48.21354150772095,
    "$GPGSV,3,1,12,01,36,187,,02,58,069,16,07,57,273,20,08,66,022,19*74\r\n"
  ],
  [
    48.21400713920593,
    "$GPGSV,3,2,12,09,03,230,,10,11,066,15,14,09,300,,16,24,103,*79\r\n"
  ],
  [
    48.21446752548218,
    "$GPGSV,3,3,12,21,64,163,,23,02,035,,27,34,053,,30,33,307,19*71\r\n"
  ],
  [
    48.214863300323486,
    "$GPGLL,3733.74280,N,12656.19136,E,003859.00,A,A*69\r\n"
  ],
  [
    49.213321685791016,
    "$GPRMC,003900.00,A,3733.74276,N,12656.19107,E,2.190,,230523,,,A*79\r\n"
  ],
  [
    49.213783264160156,
    "$GPVTG,,T,,M,2.190,N,4.056,K,A*2E\r\n"
  ],
  [
    49.21440768241882,
    "$GPGGA,003900.00,3733.74276,N,12656.19107,E,1,04,3.56,33.8,M,18.4,M,,*6B\r\n"
  ],
  [
    49.214829206466675,
    "$GPGSA,A,3,08,02,07,30,,,,,,,,,7.36,3.56,6.44*08\r\n"
  ],
  [
    49.215319871902466,
    "$GPGSV,3,1,12,01,36,187,,02,58,069,14,07,57,273,20,08,66,022,20*7C\r\n"
  ],
  [
    49.21580219268799,
    "$GPGSV,3,2,12,09,03,230,,10,11,066,13,14,09,300,,16,24,103,*7F\r\n"
  ],
  [
    49.216270446777344,
    "$GPGSV,3,3,12,21,64,163,,23,02,035,,27,34,053,,30,33,307,16*7E\r\n"
  ],
  [
    49.2166633605957,
    "$GPGLL,3733.74276,N,12656.19107,E,003900.00,A,A*6F\r\n"
  ],
  [
    50.21385836601257,
    "$GPRMC,003901.00,A,3733.74193,N,12656.19064,E,2.005,,230523,,,A*79\r\n"
  ],
  [
    50.214274644851685,
    "$GPVTG,,T,,M,2.005,N,3.714,K,A*25\r\n"
  ],
  [
    50.21487617492676,
    "$GPGGA,003901.00,3733.74193,N,12656.19064,E,1,04,3.56,33.5,M,18.4,M,,*6B\r\n"
  ],
  [
    50.215320348739624,
    "$GPGSA,A,3,08,02,07,30,,,,,,,,,7.36,3.56,6.45*09\r\n"
  ],
  [
    50.21583318710327,
    "$GPGSV,3,1,12,01,36,187,,02,58,069,11,07,57,273,20,08,66,022,20*79\r\n"
  ],
  [
    50.216307163238525,
    "$GPGSV,3,2,12,09,03,230,,10,11,066,13,14,09,300,,16,24,103,*7F\r\n"
  ],
  [
    50.216776847839355,
    "$GPGSV,3,3,12,21,64,163,,23,02,035,,27,34,053,,30,33,307,14*7C\r\n"
  ],
  [
    50.2171688079834,
    "$GPGLL,3733.74193,N,12656.19064,E,003901.00,A,A*62\r\n"
  ],
  [
    51.21603798866272,
    "$GPRMC,003902.00,A,3733.74188,N,12656.18978,E,2.224,,230523,,,A*74\r\n"
  ],
  [
    51.21632385253906,
    "$GPVTG,,T,,M,2.224,N,4.118,K,A*29\r\n"
  ],
  [
    51.21687173843384,
    "$GPGGA,003902.00,3733.74188,N,12656.18978,E,1,04,3.56,33.8,M,18.4,M,,*6A\r\n"
  ],
  [
    51.217243909835815,
    "$GPGSA,A,3,08,02,07,30,,,,,,,,,7.36,3.56,6.45*09\r\n"
  ],
  [
    51.21771717071533,
    "$GPGSV,3,1,12,01,36,187,,02,58,069,10,07,57,273,20,08,66,022,20*78\r\n"
  ],
  [
    51.218111753463745,
    "$GPGSV,3,2,12,09,03,230,,10,11,066,14,14,09,300,,16,24,103,*78\r\n"
  ],
  [
    51.218512296676636,
    "$GPGSV,3,3,12,21,64,163,,23,02,035,,27,34,053,,30,33,307,14*7C\r\n"
  ],
  [
    51.218833684921265,
    "$GPGLL,3733.74188,N,12656.18978,E,003902.00,A,A*6E\r\n"
  ],
  [
    52.21659564971924,
    "$GPRMC,003903.00,A,3733.73988,N,12656.18896,E,2.521,,230523,,,A*79\r\n"
  ],
  [
    52.21702241897583,
    "$GPVTG,,T,,M,2.521,N,4.668,K,A*2B\r\n"
  ],
  [
    52.217578172683716,
    "$GPGGA,003903.00,3733.73988,N,12656.18896,E,1,04,3.56,33.2,M,18.4,M,,*6F\r\n"
  ],
  [
    52.217963218688965,
    "$GPGSA,A,3,08,02,07,30,,,,,,,,,7.37,3.56,6.45*08\r\n"
  ],
  [
    52.21843600273132,
    "$GPGSV,3,1,12,01,36,187,,02,58,069,11,07,57,273,21,08,66,022,20*78\r\n"
  ],
  [
    52.21890950202942,
    "$GPGSV,3,2,12,09,03,230,,10,11,066,10,14,09,300,,16,24,103,*7C\r\n"
  ],
  [
    52.21937155723572,
    "$GPGSV,3,3,12,21,64,163,,23,02,035,,27,34,053,,30,33,307,14*7C\r\n"
  ],
  [
    52.21977233886719,
    "$GPGLL,3733.73988,N,12656.18896,E,003903.00,A,A*61\r\n"
  ],
  [
    53.21761441230774,
    "$GPRMC,003904.00,A,3733.73926,N,12656.18789,E,2.661,,230523,,,A*7C\r\n"
  ],
  [
    53.21790266036987,
    "$GPVTG,,T,,M,2.661,N,4.929,K,A*26\r\n"
  ],
  [
    53.21844148635864,
    "$GPGGA,003904.00,3733.73926,N,12656.18789,E,1,04,3.56,33.4,M,18.4,M,,*6B\r\n"
  ],
  [
    53.218849897384644,
    "$GPGSA,A,3,08,02,07,30,,,,,,,,,7.37,3.56,6.45*08\r\n"
  ],
  [
    53.21933460235596,
    "$GPGSV,3,1,12,01,36,187,,02,58,069,12,07,57,273,20,08,66,022,19*70\r\n"
  ],
  [
    53.219730377197266,
    "$GPGSV,3,2,12,09,03,230,,10,11,066,08,14,09,300,,16,24,103,*75\r\n"
  ],
  [
    53.220117807388306,
    "$GPGSV,3,3,12,21,64,163,,23,02,035,,27,34,053,,30,33,307,15*7D\r\n"
  ],
  [
    53.22043180465698,
    "$GPGLL,3733.73926,N,12656.18789,E,003904.00,A,A*63\r\n"
  ],
  [
    54.21673893928528,
    "$GPRMC,003905.00,A,3733.73847,N,12656.18733,E,2.517,,230523,,,A*78\r\n"
  ],
  [
    54.21706247329712,
    "$GPVTG,,T,,M,2.517,N,4.661,K,A*27\r\n"
  ],
  [
    54.21758246421814,
    "$GPGGA,003905.00,3733.73847,N,12656.18733,E,1,04,3.56,33.5,M,18.4,M,,*6C\r\n"
  ],
  [
    54.21792697906494,
    "$GPGSA,A,3,08,02,07,30,,,,,,,,,7.37,3.56,6.46*0B\r\n"
  ],
  [
    54.21836447715759,
    "$GPGSV,3,1,12,01,36,187,,02,58,068,11,07,57,273,19,08,66,022,19*78\r\n"
  ],
  [
    54.21878623962402,
    "$GPGSV,3,2,12,09,03,230,,10,11,066,08,14,09,300,,16,24,103,*75\r\n"
  ],
  [
    54.219199895858765,
    "$GPGSV,3,3,12,21,64,163,,23,02,035,,27,34,053,,30,33,307,13*7B\r\n"
  ],
  [
    54.219544410705566,
    "$GPGLL,3733.73847,N,12656.18733,E,003905.00,A,A*65\r\n"
  ],
  [
    55.21703052520752,
    "$GPRMC,003906.00,A,3733.73665,N,12656.18787,E,1.995,,230523,,,A*7F\r\n"
  ],
  [
    55.21732807159424,
    "$GPVTG,,T,,M,1.995,N,3.694,K,A*2F\r\n"
  ],
  [
    55.21793341636658,
    "$GPGGA,003906.00,3733.73665,N,12656.18787,E,1,04,3.56,33.2,M,18.4,M,,*69\r\n"
  ],
  [
    55.218273639678955,
    "$GPGSA,A,3,08,02,07,30,,,,,,,,,7.37,3.56,6.46*0B\r\n"
  ],
  [
    55.21872282028198,
    "$GPGSV,3,1,12,01,36,187,,02,58,068,12,07,57,273,18,08,66,022,19*7A\r\n"
  ],
  [
    55.21915078163147,
    "$GPGSV,3,2,12,09,03,230,,10,11,066,09,14,09,300,,16,24,103,*74\r\n"
  ],
  [
    55.21955347061157,
    "$GPGSV,3,3,12,21,64,163,,23,02,035,,27,34,053,,30,33,307,10*78\r\n"
  ],
  [
    55.2198760509491,
    "$GPGLL,3733.73665,N,12656.18787,E,003906.00,A,A*67\r\n"
  ],
  [
    56.20840930938721,
    "$GPRMC,003907.00,A,3733.73624,N,12656.18714,E,2.048,,230523,,,A*7B\r\n"
  ],
  [
    56.20890951156616,
    "$GPVTG,,T,,M,2.048,N,3.792,K,A*22\r\n"
  ],
  [
    56.20953917503357,
    "$GPGGA,003907.00,3733.73624,N,12656.18714,E,1,03,3.57,33.0,M,18.4,M,,*63\r\n"
  ],
  [
    56.210007190704346,
    "$GPGSA,A,3,08,02,07,,,,,,,,,,11.62,3.57,11.05*0F\r\n"
  ],
  [
    56.21051096916199,
    "$GPGSV,3,1,12,01,36,187,,02,58,068,13,07,57,273,18,08,66,022,17*75\r\n"
  ],
  [
    56.21097755432129,
    "$GPGSV,3,2,12,09,03,230,,10,11,066,08,14,09,300,,16,24,103,*75\r\n"
  ],
  [
    56.21145057678223,
    "$GPGSV,3,3,12,21,64,163,,23,02,035,,27,34,053,,30,33,307,08*71\r\n"
  ],
  [
    56.21185660362244,
    "$GPGLL,3733.73624,N,12656.18714,E,003907.00,A,A*69\r\n"
  ],
  [
    57.209168910980225,
    "$GPRMC,003908.00,A,3733.73569,N,12656.18590,E,2.451,,230523,,,A*7C\r\n"
  ],
  [
    57.20945072174072,
    "$GPVTG,,T,,M,2.451,N,4.540,K,A*24\r\n"
  ],
  [
    57.21001482009888,
    "$GPGGA,003908.00,3733.73569,N,12656.18590,E,1,03,3.57,33.4,M,18.4,M,,*6C\r\n"
  ],
  [
    57.210384130477905,
    "$GPGSA,A,3,08,02,07,,,,,,,,,,11.62,3.57,11.05*0F\r\n"
  ],
  [
    57.210869550704956,
    "$GPGSV,3,1,12,01,36,187,,02,58,068,13,07,57,273,18,08,66,022,18*7A\r\n"
  ],
  [
    57.211302280426025,
    "$GPGSV,3,2,12,09,03,230,,10,11,066,09,14,09,300,,16,24,103,*74\r\n"
  ],
  [
    57.21176886558533,
    "$GPGSV,3,3,12,21,64,163,,23,02,035,,27,34,053,,30,33,307,08*71\r\n"
  ],
  [
    57.2121205329895,
    "$GPGLL,3733.73569,N,12656.18590,E,003908.00,A,A*62\r\n"
  ],
  [
    58.210999488830566,
    "$GPRMC,003909.00,A,3733.73545,N,12656.18495,E,2.470,,230523,,,A*74\r\n"
  ],
  [
    58.21130585670471,
    "$GPVTG,,T,,M,2.470,N,4.574,K,A*20\r\n"
  ],
  [
    58.21190857887268,
    "$GPGGA,003909.00,3733.73545,N,12656.18495,E,1,03,3.57,33.6,M,18.4,M,,*65\r\n"
  ],
  [
    58.21230745315552,
    "$GPGSA,A,3,08,02,07,,,,,,,,,,11.62,3.57,11.05*0F\r\n"
  ],
  [
    58.21285915374756,
    "$GPGSV,3,1,12,01,36,187,,02,58,068,12,07,57,273,18,08,66,022,18*7B\r\n"
  ],
  [
    58.21326661109924,
    "$GPGSV,3,2,12,09,03,230,,10,11,066,08,14,09,300,,16,24,103,*75\r\n"
  ],
  [
    58.213690996170044,
    "$GPGSV,3,3,12,21,64,163,,23,02,035,,27,34,053,,30,33,307,09*70\r\n"
  ],
  [
    58.2139310836792,
    "$GPGLL,3733.73545,N,12656.18495,E,003909.00,A,A*69\r\n"
  ],
  [
    59.21128726005554,
    "$GPRMC,003910.00,A,3733.73614,N,12656.18442,E,2.086,,230523,,,A*7C\r\n"
  ],
  [
    59.211740016937256,
    "$GPVTG,,T,,M,2.086,N,3.863,K,A*21\r\n"
  ],
  [
    59.21252131462097,
    "$GPGGA,003910.00,3733.73614,N,12656.18442,E,1,03,3.57,33.8,M,18.4,M,,*6E\r\n"
  ],
  [
    59.21307349205017,
    "$GPGSA,A,3,08,02,07,,,,,,,,,,11.62,3.57,11.06*0C\r\n"
  ],
  [
    59.21378564834595,
    "$GPGSV,3,1,12,01,36,187,,02,58,068,10,07,57,272,18,08,66,022,19*79\r\n"
  ],
  [
    59.214089155197144,
    "$GPGSV,3,2,12,09,03,230,,10,11,066,08,14,09,300,,16,24,103,*75\r\n"
  ],
  [
    59.21436381340027,
    "$GPGSV,3,3,12,21,64,163,,23,02,035,,27,34,053,,30,33,307,*79\r\n"
  ],
  [
    59.21461582183838,
    "$GPGLL,3733.73614,N,12656.18442,E,003910.00,A,A*6C\r\n"
  ],
  [
    60.208410024642944,
    "$GPRMC,003911.00,A,3733.73457,N,12656.18496,E,1.706,,230523,,,A*7D\r\n"
  ],
  [
    60.208733320236206,
    "$GPVTG,,T,,M,1.706,N,3.160,K,A*27\r\n"
  ],
  [
    60.20895767211914,
    "$GPGGA,003911.00,3733.73457,N,12656.18496,E,1,03,3.57,33.6,M,18.4,M,,*6D\r\n"
  ],
  [
    60.209121227264404,
    "$GPGSA,A,3,08,02,07,,,,,,,,,,11.62,3.57,11.06*0C\r\n"
  ],
  [
    60.20932698249817,
    "$GPGSV,3,1,12,01,36,187,,02,58,068,12,07,57,272,18,08,66,023,19*7A\r\n"
  ],
  [
    60.209529876708984,
    "$GPGSV,3,2,12,09,03,230,,10,11,066,08,14,09,300,,16,24,103,*75\r\n"
  ],
  [
    60.209710359573364,
    "$GPGSV,3,3,12,21,64,163,,23,02,035,,27,34,053,,30,33,307,*79\r\n"
  ],
  [
    60.209855794906616,
    "$GPGLL,3733.73457,N,12656.18496,E,003911.00,A,A*61\r\n"
  ],
  [
    61.21552848815918,
    "$GPRMC,003912.00,A,3733.73503,N,12656.18296,E,2.279,,230523,,,A*76\r\n"
  ],
  [
    61.2158305644989,
    "$GPVTG,,T,,M,2.279,N,4.221,K,A*28\r\n"
  ],
  [
    61.21637535095215,
    "$GPGGA,003912.00,3733.73503,N,12656.18296,E,1,03,3.57,33.8,M,18.4,M,,*66\r\n"
  ],
  [
    61.216819763183594,
    "$GPGSA,A,3,08,02,07,,,,,,,,,,11.62,3.57,11.06*0C\r\n"
  ],
  [
    61.21725606918335,
    "$GPGSV,3,1,12,01,36,187,,02,58,068,12,07,57,272,18,08,66,023,19*7A\r\n"
  ],
  [
    61.217681884765625,
    "$GPGSV,3,2,12,09,03,230,,10,11,066,09,14,09,300,,16,24,103,*74\r\n"
  ],
  [
    61.21809148788452,
    "$GPGSV,3,3,12,21,64,163,,23,02,035,,27,34,053,,30,33,307,07*7E\r\n"
  ],
  [
    61.21842336654663,
    "$GPGLL,3733.73503,N,12656.18296,E,003912.00,A,A*64\r\n"
  ],
  [
    62.2063090801239,
    "$GPRMC,003913.00,A,3733.73510,N,12656.18153,E,2.626,,230523,,,A*71\r\n"
  ],
  [
    62.20670986175537,
    "$GPVTG,,T,,M,2.626,N,4.863,K,A*2A\r\n"
  ],
  [
    62.207292556762695,
    "$GPGGA,003913.00,3733.73510,N,12656.18153,E,1,02,3.44,33.7,M,18.4,M,,*63\r\n"
  ],
  [
    62.207629442214966,
    "$GPGSA,A,2,08,07,,,,,,,,,,,3.59,3.44,1.00*01\r\n"
  ],
  [
    62.208075284957886,
    "$GPGSV,3,1,12,01,36,187,,02,58,068,13,07,57,272,18,08,66,023,18*7A\r\n"
  ],
  [
    62.20852732658386,
    "$GPGSV,3,2,12,09,03,230,,10,11,066,08,14,09,300,,16,24,103,*75\r\n"
  ],
  [
    62.20894122123718,
    "$GPGSV,3,3,12,21,64,163,,23,02,035,,27,34,053,,30,33,307,09*70\r\n"
  ],
  [
    62.209277868270874,
    "$GPGLL,3733.73510,N,12656.18153,E,003913.00,A,A*6D\r\n"
  ],
  [
    63.21841788291931,
    "$GPRMC,003914.00,A,3733.73489,N,12656.18150,E,2.157,,230523,,,A*75\r\n"
  ],
  [
    63.218806743621826,
    "$GPVTG,,T,,M,2.157,N,3.995,K,A*24\r\n"
  ],
  [
    63.21937942504883,
    "$GPGGA,003914.00,3733.73489,N,12656.18150,E,1,02,3.44,34.0,M,18.4,M,,*66\r\n"
  ],
  [
    63.21976947784424,
    "$GPGSA,A,2,08,07,,,,,,,,,,,3.58,3.44,1.00*00\r\n"
  ],
  [
    63.220266342163086,
    "$GPGSV,3,1,12,01,36,187,,02,58,068,10,07,57,272,18,08,66,023,17*76\r\n"
  ],
  [
    63.22076153755188,
    "$GPGSV,3,2,12,09,03,230,,10,11,066,12,14,09,300,,16,24,103,*7E\r\n"
  ],
  [
    63.22118639945984,
    "$GPGSV,3,3,12,21,64,163,05,23,02,035,,27,34,053,,30,33,307,13*7E\r\n"
  ],
  [
    63.221526861190796,
    "$GPGLL,3733.73489,N,12656.18150,E,003914.00,A,A*68\r\n"
  ],
  [
    64.20903158187866,
    "$GPRMC,003915.00,A,3733.73384,N,12656.18142,E,1.998,,230523,,,A*75\r\n"
  ],
  [
    64.20933389663696,
    "$GPVTG,,T,,M,1.998,N,3.699,K,A*2F\r\n"
  ],
  [
    64.20992708206177,
    "$GPGGA,003915.00,3733.73384,N,12656.18142,E,1,02,3.44,34.0,M,18.4,M,,*6E\r\n"
  ],
  [
    64.21027398109436,
    "$GPGSA,A,2,08,07,,,,,,,,,,,3.58,3.44,1.00*00\r\n"
  ],
  [
    64.21070456504822,
    "$GPGSV,3,1,12,01,36,187,,02,58,068,,07,57,272,16,08,66,023,17*79\r\n"
  ],
  [
    64.21111822128296,
    "$GPGSV,3,2,12,09,03,230,,10,11,066,12,14,09,300,,16,24,103,*7E\r\n"
  ],
  [
    64.21138858795166,
    "$GPGSV,3,3,12,21,64,163,,23,02,035,,27,34,053,,30,33,307,14*7C\r\n"
  ],
  [
    64.21153664588928,
    "$GPGLL,3733.73384,N,12656.18142,E,003915.00,A,A*60\r\n"
  ],
  [
    65.21737289428711,
    "$GPRMC,003916.00,A,3733.73573,N,12656.17992,E,2.128,,230523,,,A*72\r\n"
  ],
  [
    65.21768260002136,
    "$GPVTG,,T,,M,2.128,N,3.942,K,A*26\r\n"
  ],
  [
    65.21820592880249,
    "$GPGGA,003916.00,3733.73573,N,12656.17992,E,1,03,4.51,34.0,M,18.4,M,,*6B\r\n"
  ],
  [
    65.21857357025146,
    "$GPGSA,A,3,08,07,30,,,,,,,,,,10.10,4.51,9.04*33\r\n"
  ],
  [
    65.21903157234192,
    "$GPGSV,3,1,12,01,36,187,,02,58,068,,07,57,272,16,08,66,023,17*79\r\n"
  ],
  [
    65.21942734718323,
    "$GPGSV,3,2,12,09,03,230,,10,11,066,10,14,09,300,,16,24,103,*7C\r\n"
  ],
  [
    65.21982455253601,
    "$GPGSV,3,3,12,21,64,163,,23,02,035,,27,34,053,,30,33,307,16*7E\r\n"
  ],
  [
    65.22014093399048,
    "$GPGLL,3733.73573,N,12656.17992,E,003916.00,A,A*67\r\n"
  ],
  [
    66.20834708213806,
    "$GPRMC,003917.00,A,3733.73628,N,12656.17795,E,2.806,,230523,,,A*72\r\n"
  ],
  [
    66.20867967605591,
    "$GPVTG,,T,,M,2.806,N,5.197,K,A*25\r\n"
  ],
  [
    66.20921540260315,
    "$GPGGA,003917.00,3733.73628,N,12656.17795,E,1,03,4.51,34.0,M,18.4,M,,*6E\r\n"
  ],
  [
    66.20957326889038,
    "$GPGSA,A,3,08,07,30,,,,,,,,,,10.10,4.51,9.04*33\r\n"
  ],
  [
    66.2100031375885,
    "$GPGSV,3,1,12,01,36,187,,02,58,068,,07,57,272,15,08,66,023,17*7A\r\n"
  ],
  [
    66.21041512489319,
    "$GPGSV,3,2,12,09,03,230,,10,11,066,09,14,09,300,,16,24,103,*74\r\n"
  ],
  [
    66.2108359336853,
    "$GPGSV,3,3,12,21,64,163,,23,02,035,,27,34,053,,30,33,307,18*70\r\n"
  ],
  [
    66.21117305755615,
    "$GPGLL,3733.73628,N,12656.17795,E,003917.00,A,A*62\r\n"
  ],
  [
    67.2189519405365,
    "$GPRMC,003918.00,A,3733.73835,N,12656.17788,E,2.451,,230523,,,A*7D\r\n"
  ],
  [
    67.21927189826965,
    "$GPVTG,,T,,M,2.451,N,4.539,K,A*2A\r\n"
  ],
  [
    67.21986794471741,
    "$GPGGA,003918.00,3733.73835,N,12656.17788,E,1,03,3.21,34.0,M,18.4,M,,*6F\r\n"
  ],
  [
    67.22019529342651,
    "$GPGSA,A,3,08,07,30,,,,,,,,,,7.84,3.21,7.15*06\r\n"
  ],
  [
    67.22065424919128,
    "$GPGSV,3,1,12,01,36,187,04,02,58,068,18,07,57,272,16,08,66,023,18*7B\r\n"
  ],
  [
    67.22104668617249,
    "$GPGSV,3,2,12,09,03,230,,10,11,066,,14,09,300,,16,24,103,*7D\r\n"
  ],
  [
    67.22145080566406,
    "$GPGSV,3,3,12,21,64,163,,23,02,035,,27,34,053,,30,33,307,19*71\r\n"
  ],
  [
    67.22179079055786,
    "$GPGLL,3733.73835,N,12656.17788,E,003918.00,A,A*63\r\n"
  ],
  [
    68.21399641036987,
    "$GPRMC,003919.00,A,3733.73938,N,12656.17728,E,2.270,,230523,,,A*7F\r\n"
  ],
  [
    68.21423578262329,
    "$GPVTG,,T,,M,2.270,N,4.204,K,A*26\r\n"
  ],
  [
    68.21469473838806,
    "$GPGGA,003919.00,3733.73938,N,12656.17728,E,1,03,3.28,34.2,M,18.4,M,,*63\r\n"
  ],
  [
    68.21500372886658,
    "$GPGSA,A,3,08,07,30,,,,,,,,,,7.88,3.28,7.17*01\r\n"
  ],
  [
    68.21542453765869,
    "$GPGSV,3,1,12,01,36,187,07,02,58,068,17,07,57,272,16,08,66,023,16*79\r\n"
  ],
  [
    68.21580624580383,
    "$GPGSV,3,2,12,09,03,230,,10,11,066,,14,09,300,,16,24,103,*7D\r\n"
  ],
  [
    68.2162036895752,
    "$GPGSV,3,3,12,21,64,163,07,23,02,035,,27,34,053,,30,33,307,19*76\r\n"
  ],
  [
    68.21652412414551,
    "$GPGLL,3733.73938,N,12656.17728,E,003919.00,A,A*64\r\n"
  ],
  [
    69.21636438369751,
    "$GPRMC,003920.00,A,3733.73949,N,12656.17679,E,1.976,,230523,,,A*78\r\n"
  ],
  [
    69.2167375087738,
    "$GPVTG,,T,,M,1.976,N,3.659,K,A*23\r\n"
  ],
  [
    69.21730470657349,
    "$GPGGA,003920.00,3733.73949,N,12656.17679,E,1,03,3.28,34.2,M,18.4,M,,*6A\r\n"
  ],
  [
    69.21773147583008,
    "$GPGSA,A,3,08,07,30,,,,,,,,,,7.89,3.28,7.17*00\r\n"
  ],
  [
    69.21819996833801,
    "$GPGSV,3,1,12,01,36,187,09,02,58,068,15,07,57,272,16,08,66,023,15*76\r\n"
  ],
  [
    69.21861815452576,
    "$GPGSV,3,2,12,09,03,230,,10,11,066,,14,09,300,,16,24,103,*7D\r\n"
  ],
  [
    69.2190420627594,
    "$GPGSV,3,3,12,21,64,163,08,23,02,035,,27,34,053,,30,33,307,20*73\r\n"
  ],
  [
    69.21937394142151,
    "$GPGLL,3733.73949,N,12656.17679,E,003920.00,A,A*6D\r\n"
  ],
  [
    70.21827673912048,
    "$GPRMC,003921.00,A,3733.73967,N,12656.17644,E,1.670,,230523,,,A*72\r\n"
  ],
  [
    70.21859836578369,
    "$GPVTG,,T,,M,1.670,N,3.092,K,A*2B\r\n"
  ],
  [
    70.21914958953857,
    "$GPGGA,003921.00,3733.73967,N,12656.17644,E,1,03,3.28,34.2,M,18.4,M,,*69\r\n"
  ],
  [
    70.21953845024109,
    "$GPGSA,A,3,08,07,30,,,,,,,,,,7.89,3.28,7.17*00\r\n"
  ],
  [
    70.22000813484192,
    "$GPGSV,3,1,12,01,36,187,10,02,58,068,15,07,57,272,17,08,66,023,15*7F\r\n"
  ],
  [
    70.22040724754333,
    "$GPGSV,3,2,12,09,03,230,,10,11,066,,14,09,300,,16,24,103,*7D\r\n"
  ],
  [
    70.22083616256714,
    "$GPGSV,3,3,12,21,64,163,12,23,02,035,,27,34,053,,30,33,307,20*78\r\n"
  ],
  [
    70.22116923332214,
    "$GPGLL,3733.73967,N,12656.17644,E,003921.00,A,A*6E\r\n"
  ],
  [
    71.21831011772156,
    "$GPRMC,003922.00,A,3733.74047,N,12656.17550,E,1.859,,230523,,,A*7E\r\n"
  ],
  [
    71.21861052513123,
    "$GPVTG,,T,,M,1.859,N,3.442,K,A*27\r\n"
  ],
  [
    71.21907258033752,
    "$GPGGA,003922.00,3733.74047,N,12656.17550,E,1,04,2.75,34.3,M,18.4,M,,*6F\r\n"
  ],
  [
    71.21939969062805,
    "$GPGSA,A,3,08,02,07,30,,,,,,,,,6.63,2.75,6.03*0A\r\n"
  ],
  [
    71.21983885765076,
    "$GPGSV,3,1,12,01,36,187,09,02,58,068,13,07,57,272,16,08,66,023,13*76\r\n"
  ],
  [
    71.2202501296997,
    "$GPGSV,3,2,12,09,03,230,,10,11,066,,14,09,300,,16,24,103,*7D\r\n"
  ],
  [
    71.22067046165466,
    "$GPGSV,3,3,12,21,64,163,12,23,02,035,,27,34,053,,30,33,307,19*72\r\n"
  ],
  [
    71.22100138664246,
    "$GPGLL,3733.74047,N,12656.17550,E,003922.00,A,A*67\r\n"
  ],
  [
    72.21946215629578,
    "$GPRMC,003923.00,A,3733.74008,N,12656.17392,E,2.044,,230523,,,A*7B\r\n"
  ],
  [
    72.21978688240051,
    "$GPVTG,,T,,M,2.044,N,3.786,K,A*2B\r\n"
  ],
  [
    72.22033882141113,
    "$GPGGA,003923.00,3733.74008,N,12656.17392,E,1,05,2.19,34.3,M,18.4,M,,*66\r\n"
  ],
  [
    72.22072243690491,
    "$GPGSA,A,3,08,02,07,21,30,,,,,,,,6.00,2.19,5.59*0A\r\n"
  ],
  [
    72.22117590904236,
    "$GPGSV,3,1,12,01,36,187,09,02,58,068,12,07,57,272,16,08,66,023,13*77\r\n"
  ],
  [
    72.22157621383667,
    "$GPGSV,3,2,12,09,03,230,,10,11,066,,14,09,300,,16,24,103,*7D\r\n"
  ],
  [
    72.22178554534912,
    "$GPGSV,3,3,12,21,64,163,13,23,02,035,,27,34,053,,30,33,307,18*72\r\n"
  ],
  [
    72.22193169593811,
    "$GPGLL,3733.74008,N,12656.17392,E,003923.00,A,A*65\r\n"
  ],
  [
    73.21875929832458,
    "$GPRMC,003924.00,A,3733.74176,N,12656.17371,E,1.813,,230523,,,A*70\r\n"
  ],
  [
    73.21904158592224,
    "$GPVTG,,T,,M,1.813,N,3.359,K,A*24\r\n"
  ],
  [
    73.21957850456238,
    "$GPGGA,003924.00,3733.74176,N,12656.17371,E,1,04,2.70,34.4,M,18.4,M,,*6D\r\n"
  ],
  [
    73.21994709968567,
    "$GPGSA,A,3,08,07,21,30,,,,,,,,,6.87,2.70,6.31*05\r\n"
  ],
  [
    73.22042632102966,
    "$GPGSV,3,1,12,01,36,187,09,02,58,068,09,07,57,272,16,08,66,023,13*7D\r\n"
  ],
  [
    73.2208399772644,
    "$GPGSV,3,2,12,09,03,230,,10,11,066,,14,09,300,,16,24,103,*7D\r\n"
  ],
  [
    73.2212393283844,
    "$GPGSV,3,3,12,21,64,163,14,23,02,035,,27,34,053,,30,33,307,19*74\r\n"
  ],
  [
    73.22157692909241,
    "$GPGLL,3733.74176,N,12656.17371,E,003924.00,A,A*67\r\n"
  ],
  [
    74.21588611602783,
    "$GPRMC,003925.00,A,3733.74190,N,12656.17237,E,1.995,,230523,,,A*75\r\n"
  ],
  [
    74.2162663936615,
    "$GPVTG,,T,,M,1.995,N,3.694,K,A*2F\r\n"
  ],
  [
    74.21700429916382,
    "$GPGGA,003925.00,3733.74190,N,12656.17237,E,1,04,2.70,34.5,M,18.4,M,,*66\r\n"
  ],
  [
    74.21742558479309,
    "$GPGSA,A,3,08,07,21,30,,,,,,,,,6.87,2.70,6.32*06\r\n"
  ],
  [
    74.2177484035492,
    "$GPGSV,3,1,12,01,36,187,08,02,58,068,08,07,57,272,16,08,66,023,13*7D\r\n"
  ],
  [
    74.21802735328674,
