[
  [
    0.1027216911315918,
    "$GPRMC,080152.00,A,3733.75132,N,12656.17330,E,1.125,,230523,,,A*7A\r\n"
  ],
  [
    0.10303354263305664,
    "$GPVTG,,T,,M,1.125,N,2.083,K,A*2D\r\n"
  ],
  [
    0.10324501991271973,
    "$GPGGA,080152.00,3733.75132,N,12656.17330,E,1,05,1.85,36.9,M,18.4,M,,*6C\r\n"
  ],
  [
    0.10338187217712402,
    "$GPGSA,A,3,11,06,19,09,04,,,,,,,,2.76,1.85,2.04*08\r\n"
  ],
  [
    0.10354113578796387,
    "$GPGSV,4,1,15,04,12,039,20,05,30,253,,06,56,075,25,07,05,103,*75\r\n"
  ],
  [
    0.1036996841430664,
    "$GPGSV,4,2,15,09,38,058,25,11,61,330,19,12,20,263,,13,03,192,*71\r\n"
  ],
  [
    0.10385799407958984,
    "$GPGSV,4,3,15,17,17,154,,19,37,159,16,20,53,272,15,25,11,297,*70\r\n"
  ],
  [
    0.10398173332214355,
    "$GPGSV,4,4,15,29,03,323,,30,00,134,,50,46,180,*4C\r\n"
  ],
  [
    0.10410928726196289,
    "$GPGLL,3733.75132,N,12656.17330,E,080152.00,A,A*61\r\n"
  ],
  [
    0.9905612468719482,
    "$GPTXT,01,01,02,u-blox ag - www.u-blox.com*50\r\n"
  ],
  [
    0.9909539222717285,
    "$GPTXT,01,01,02,HW  UBX-G70xx   00070000 *77\r\n"
  ],
  [
    0.9915344715118408,
    "$GPTXT,01,01,02,ROM CORE 1.00 (59842) Jun 27 2012 17:43:52*59\r\n"
  ],
  [
    0.9918360710144043,
    "$GPTXT,01,01,02,PROTVER 14.00*1E\r\n"
  ],
  [
    0.9921460151672363,
    "$GPTXT,01,01,02,ANTSUPERV=AC SD PDoS SR*20\r\n"
  ],
  [
    0.9923996925354004,
    "$GPTXT,01,01,02,ANTSTATUS=OK*3B\r\n"
  ],
  [
    0.9928820133209229,
    "$GPTXT,01,01,02,LLC FFFFFFFF-FFFFFFED-FFFFFFFF-FFFFFFFF-FFFFFFFD*2D\r\n"
  ],
  [
    1.0961213111877441,
    "$GPRMC,080153.00,A,3733.75120,N,12656.17369,E,0.757,,230523,,,A*76\r\n"
  ],
  [
    1.0965197086334229,
    "$GPVTG,,T,,M,0.757,N,1.401,K,A*22\r\n"
  ],
  [
    1.0973167419433594,
    "$GPGGA,080153.00,3733.75120,N,12656.17369,E,1,06,1.33,37.4,M,18.4,M,,*60\r\n"
  ],
  [
    1.0979621410369873,
    "$GPGSA,A,3,11,06,20,19,09,04,,,,,,,2.31,1.33,1.88*03\r\n"
  ],
  [
    1.098766565322876,
    "$GPGSV,4,1,15,04,12,039,19,05,30,253,,06,56,075,25,07,05,103,*7F\r\n"
  ],
  [
    1.099168062210083,
    "$GPGSV,4,2,15,09,38,058,25,11,61,330,19,12,20,263,,13,03,192,*71\r\n"
  ],
  [
    1.0994763374328613,
    "$GPGSV,4,3,15,17,17,154,,19,37,159,17,20,53,272,19,25,11,297,*7D\r\n"
  ],
  [
    1.099714994430542,
    "$GPGSV,4,4,15,29,03,323,,30,00,134,,50,46,180,*4C\r\n"
  ],
  [
    1.0999581813812256,
    "$GPGLL,3733.75120,N,12656.17369,E,080153.00,A,A*6F\r\n"
  ],
  [
    2.0968005657196045,
    "$GPRMC,080154.00,A,3733.75105,N,12656.17367,E,0.551,,230523,,,A*7C\r\n"
  ],
  [
    2.0971150398254395,
    "$GPVTG,,T,,M,0.551,N,1.020,K,A*21\r\n"
  ],
  [
    2.0977187156677246,
    "$GPGGA,080154.00,3733.75105,N,12656.17367,E,1,06,1.33,37.5,M,18.4,M,,*6F\r\n"
  ],
  [
    2.0981104373931885,
    "$GPGSA,A,3,11,06,20,19,09,04,,,,,,,2.31,1.33,1.88*03\r\n"
  ],
  [
    2.0985801219940186,
    "$GPGSV,4,1,15,04,12,039,19,05,30,253,,06,56,075,25,07,05,103,*7F\r\n"
  ],
  [
    2.09902024269104,
    "$GPGSV,4,2,15,09,38,058,26,11,61,330,20,12,20,263,,13,03,192,*78\r\n"
  ],
  [
    2.099454164505005,
    "$GPGSV,4,3,15,17,17,154,,19,37,159,17,20,53,272,21,25,11,297,*76\r\n"
  ],
  [
    2.0997867584228516,
    "$GPGSV,4,4,15,29,03,323,,30,00,134,,50,46,180,*4C\r\n"
  ],
  [
    2.100127935409546,
    "$GPGLL,3733.75105,N,12656.17367,E,080154.00,A,A*61\r\n"
  ],
  [
    3.096994400024414,
    "$GPRMC,080155.00,A,3733.75090,N,12656.17401,E,0.331,,230523,,,A*77\r\n"
  ],
  [
    3.0972917079925537,
    "$GPVTG,,T,,M,0.331,N,0.613,K,A*26\r\n"
  ],
  [
    3.0978760719299316,
    "$GPGGA,080155.00,3733.75090,N,12656.17401,E,1,06,1.33,37.6,M,18.4,M,,*67\r\n"
  ],
  [
    3.0983519554138184,
    "$GPGSA,A,3,11,06,20,19,09,04,,,,,,,2.31,1.33,1.88*03\r\n"
  ],
  [
    3.098846912384033,
    "$GPGSV,4,1,15,04,12,039,21,05,30,253,,06,56,075,22,07,05,103,*73\r\n"
  ],
  [
    3.0992751121520996,
    "$GPGSV,4,2,15,09,38,058,26,11,62,331,20,12,20,263,,13,03,192,*7A\r\n"
  ],
  [
    3.0997087955474854,
    "$GPGSV,4,3,15,17,17,154,,19,37,159,15,20,53,272,22,25,11,297,*77\r\n"
  ],
  [
    3.1000418663024902,
    "$GPGSV,4,4,15,29,03,323,,30,00,134,,50,46,180,*4C\r\n"
  ],
  [
    3.1003851890563965,
    "$GPGLL,3733.75090,N,12656.17401,E,080155.00,A,A*6A\r\n"
  ],
  [
    4.099135875701904,
    "$GPRMC,080156.00,A,3733.75070,N,12656.17455,E,0.253,,230523,,,A*7E\r\n"
  ],
  [
    4.099453449249268,
    "$GPVTG,,T,,M,0.253,N,0.469,K,A*2C\r\n"
  ],
  [
    4.099971532821655,
    "$GPGGA,080156.00,3733.75070,N,12656.17455,E,1,06,1.33,37.9,M,18.4,M,,*64\r\n"
  ],
  [
    4.100348472595215,
    "$GPGSA,A,3,11,06,20,19,09,04,,,,,,,2.31,1.33,1.88*03\r\n"
  ],
  [
    4.100775957107544,
    "$GPGSV,4,1,15,04,12,039,20,05,30,253,,06,56,075,21,07,05,103,*71\r\n"
  ],
  [
    4.101202011108398,
    "$GPGSV,4,2,15,09,38,058,26,11,62,331,19,12,19,263,,13,03,192,*7A\r\n"
  ],
  [
    4.101635456085205,
    "$GPGSV,4,3,15,17,17,154,,19,37,159,15,20,53,272,21,25,11,297,*74\r\n"
  ],
  [
    4.101966142654419,
    "$GPGSV,4,4,15,29,03,323,,30,00,134,,50,46,180,*4C\r\n"
  ],
  [
    4.102304697036743,
    "$GPGLL,3733.75070,N,12656.17455,E,080156.00,A,A*66\r\n"
  ],
  [
    5.100306510925293,
    "$GPRMC,080157.00,A,3733.75037,N,12656.17466,E,0.325,,230523,,,A*7C\r\n"
  ],
  [
    5.100622653961182,
    "$GPVTG,,T,,M,0.325,N,0.602,K,A*23\r\n"
  ],
  [
    5.101179361343384,
    "$GPGGA,080157.00,3733.75037,N,12656.17466,E,1,06,1.33,38.1,M,18.4,M,,*61\r\n"
  ],
  [
    5.101642370223999,
    "$GPGSA,A,3,11,06,20,19,09,04,,,,,,,2.31,1.33,1.88*03\r\n"
  ],
  [
    5.102073431015015,
    "$GPGSV,4,1,15,04,12,039,18,05,30,253,,06,56,075,28,07,05,103,*73\r\n"
  ],
  [
    5.102532148361206,
    "$GPGSV,4,2,15,09,38,058,26,11,62,331,19,12,19,263,,13,04,191,*7E\r\n"
  ],
  [
    5.102961540222168,
    "$GPGSV,4,3,15,17,17,154,,19,37,159,13,20,53,272,20,25,11,297,*73\r\n"
  ],
  [
    5.103296518325806,
    "$GPGSV,4,4,15,29,03,323,,30,00,134,,50,46,180,*4C\r\n"
  ],
  [
    5.103645324707031,
    "$GPGLL,3733.75037,N,12656.17466,E,080157.00,A,A*64\r\n"
  ],
  [
    6.10055685043335,
    "$GPRMC,080158.00,A,3733.75022,N,12656.17478,E,0.263,,230523,,,A*7B\r\n"
  ],
  [
    6.100847959518433,
    "$GPVTG,,T,,M,0.263,N,0.487,K,A*2F\r\n"
  ],
  [
    6.101428747177124,
    "$GPGGA,080158.00,3733.75022,N,12656.17478,E,1,06,1.33,38.3,M,18.4,M,,*67\r\n"
  ],
  [
    6.101848602294922,
    "$GPGSA,A,3,11,06,20,19,09,04,,,,,,,2.31,1.33,1.88*03\r\n"
  ],
  [
    6.10234260559082,
    "$GPGSV,4,1,15,04,12,039,16,05,30,253,,06,56,075,28,07,05,103,*7D\r\n"
  ],
  [
    6.102803468704224,
    "$GPGSV,4,2,15,09,38,058,25,11,62,331,17,12,19,263,,13,04,191,*73\r\n"
  ],
  [
    6.103230714797974,
    "$GPGSV,4,3,15,17,17,154,,19,37,159,12,20,53,272,18,25,11,297,*79\r\n"
  ],
  [
    6.103571176528931,
    "$GPGSV,4,4,15,29,03,323,,30,00,134,,50,46,180,*4C\r\n"
  ],
  [
    6.103911876678467,
    "$GPGLL,3733.75022,N,12656.17478,E,080158.00,A,A*60\r\n"
  ],
  [
    7.100524187088013,
    "$GPRMC,080159.00,A,3733.75008,N,12656.17486,E,0.435,,230523,,,A*76\r\n"
  ],
  [
    7.100848197937012,
    "$GPVTG,,T,,M,0.435,N,0.805,K,A*2C\r\n"
  ],
  [
    7.101459264755249,
    "$GPGGA,080159.00,3733.75008,N,12656.17486,E,1,06,1.33,38.3,M,18.4,M,,*6F\r\n"
  ],
  [
    7.101853132247925,
    "$GPGSA,A,3,11,06,20,19,09,04,,,,,,,2.31,1.33,1.88*03\r\n"
  ],
  [
    7.102294445037842,
    "$GPGSV,4,1,15,04,12,039,16,05,30,253,,06,56,075,28,07,05,103,*7D\r\n"
  ],
  [
    7.102753639221191,
    "$GPGSV,4,2,15,09,38,058,26,11,62,331,17,12,19,263,,13,04,191,*70\r\n"
  ],
  [
    7.103196859359741,
    "$GPGSV,4,3,15,17,17,154,,19,37,159,12,20,53,272,17,25,11,297,*76\r\n"
  ],
  [
    7.103553295135498,
    "$GPGSV,4,4,15,29,03,323,,30,00,134,,50,46,180,*4C\r\n"
  ],
  [
    7.103905916213989,
    "$GPGLL,3733.75008,N,12656.17486,E,080159.00,A,A*68\r\n"
  ],
  [
    8.101535558700562,
    "$GPRMC,080200.00,A,3733.75025,N,12656.17434,E,1.147,,230523,,,A*7E\r\n"
  ],
  [
    8.101862907409668,
    "$GPVTG,,T,,M,1.147,N,2.124,K,A*25\r\n"
  ],
  [
    8.102484226226807,
    "$GPGGA,080200.00,3733.75025,N,12656.17434,E,1,06,1.33,38.5,M,18.4,M,,*60\r\n"
  ],
  [
    8.102926969528198,
    "$GPGSA,A,3,11,06,20,19,09,04,,,,,,,2.31,1.33,1.88*03\r\n"
  ],
  [
    8.103430032730103,
    "$GPGSV,4,1,15,04,12,039,16,05,30,253,,06,56,075,27,07,05,103,*72\r\n"
  ],
  [
    8.103870153427124,
    "$GPGSV,4,2,15,09,38,058,25,11,62,331,17,12,19,263,,13,04,191,*73\r\n"
  ],
  [
    8.104310512542725,
    "$GPGSV,4,3,15,17,17,154,,19,37,159,10,20,53,272,17,25,11,297,*74\r\n"
  ],
  [
    8.104678630828857,
    "$GPGSV,4,4,15,29,03,323,,30,00,134,,50,46,180,*4C\r\n"
  ],
  [
    8.105041742324829,
    "$GPGLL,3733.75025,N,12656.17434,E,080200.00,A,A*61\r\n"
  ],
  [
    9.092379570007324,
    "$GPRMC,080201.00,A,3733.75003,N,12656.17407,E,1.533,,230523,,,A*7C\r\n"
  ],
  [
    9.0926992893219,
    "$GPVTG,,T,,M,1.533,N,2.839,K,A*27\r\n"
  ],
  [
    9.093257665634155,
    "$GPGGA,080201.00,3733.75003,N,12656.17407,E,1,06,1.33,39.0,M,18.4,M,,*61\r\n"
  ],
  [
    9.093620538711548,
    "$GPGSA,A,3,11,06,20,19,09,04,,,,,,,2.31,1.33,1.88*03\r\n"
  ],
  [
    9.094031810760498,
    "$GPGSV,4,1,15,04,12,039,16,05,30,253,,06,56,075,26,07,05,103,*73\r\n"
  ],
  [
    9.094450235366821,
    "$GPGSV,4,2,15,09,38,058,23,11,62,331,16,12,19,263,,13,04,191,*74\r\n"
  ],
  [
    9.094859838485718,
    "$GPGSV,4,3,15,17,16,155,,19,37,159,10,20,53,272,16,25,11,297,*75\r\n"
  ],
  [
    9.095178365707397,
    "$GPGSV,4,4,15,29,03,323,,30,00,134,,50,46,180,*4C\r\n"
  ],
  [
    9.09551215171814,
    "$GPGLL,3733.75003,N,12656.17407,E,080201.00,A,A*64\r\n"
  ],
  [
    10.101665019989014,
    "$GPRMC,080202.00,A,3733.74963,N,12656.17394,E,1.598,,230523,,,A*7D\r\n"
  ],
  [
    10.101975679397583,
    "$GPVTG,,T,,M,1.598,N,2.960,K,A*2B\r\n"
  ],
  [
    10.102513313293457,
    "$GPGGA,080202.00,3733.74963,N,12656.17394,E,1,06,1.33,39.5,M,18.4,M,,*64\r\n"
  ],
  [
    10.102880716323853,
    "$GPGSA,A,3,11,06,20,19,09,04,,,,,,,2.31,1.33,1.88*03\r\n"
  ],
  [
    10.103307723999023,
    "$GPGSV,4,1,15,04,12,039,15,05,30,253,,06,56,075,27,07,05,103,*71\r\n"
  ],
  [
    10.103744268417358,
    "$GPGSV,4,2,15,09,38,058,22,11,62,331,14,12,19,263,,13,04,191,*77\r\n"
  ],
  [
    10.104171991348267,
    "$GPGSV,4,3,15,17,16,155,,19,37,159,12,20,53,272,14,25,11,297,*75\r\n"
  ],
  [
    10.104509830474854,
    "$GPGSV,4,4,15,29,03,323,,30,00,134,,50,46,180,*4C\r\n"
  ],
  [
    10.104851961135864,
    "$GPGLL,3733.74963,N,12656.17394,E,080202.00,A,A*64\r\n"
  ],
  [
    11.101945877075195,
    "$GPRMC,080203.00,A,3733.74982,N,12656.17306,E,2.113,,230523,,,A*7C\r\n"
  ],
  [
    11.102222442626953,
    "$GPVTG,,T,,M,2.113,N,3.914,K,A*2D\r\n"
  ],
  [
    11.1024010181427,
    "$GPGGA,080203.00,3733.74982,N,12656.17306,E,1,06,1.33,40.1,M,18.4,M,,*6B\r\n"
  ],
  [
    11.102534055709839,
    "$GPGSA,A,3,11,06,20,19,09,04,,,,,,,2.31,1.33,1.88*03\r\n"
  ],
  [
    11.102684497833252,
    "$GPGSV,4,1,15,04,12,039,13,05,30,253,,06,56,075,27,07,05,103,*77\r\n"
  ],
  [
    11.102835416793823,
    "$GPGSV,4,2,15,09,38,058,22,11,62,331,13,12,19,263,,13,04,191,*70\r\n"
  ],
  [
    11.102988481521606,
    "$GPGSV,4,3,15,17,16,155,,19,37,159,13,20,53,272,14,25,11,297,*74\r\n"
  ],
  [
    11.103105306625366,
    "$GPGSV,4,4,15,29,03,323,,30,00,134,,50,46,180,*4C\r\n"
  ],
  [
    11.10322380065918,
    "$GPGLL,3733.74982,N,12656.17306,E,080203.00,A,A*61\r\n"
  ],
  [
    12.09092926979065,
    "$GPRMC,080204.00,A,3733.74980,N,12656.17232,E,2.311,,230523,,,A*7F\r\n"
  ],
  [
    12.091052770614624,
    "$GPVTG,,T,,M,2.311,N,4.280,K,A*2C\r\n"
  ],
  [
    12.091314315795898,
    "$GPGGA,080204.00,3733.74980,N,12656.17232,E,1,06,1.33,40.4,M,18.4,M,,*6D\r\n"
  ],
  [
    12.091516017913818,
    "$GPGSA,A,3,11,06,20,19,09,04,,,,,,,2.31,1.33,1.88*03\r\n"
  ],
  [
    12.091706991195679,
    "$GPGSV,4,1,15,04,12,039,12,05,30,253,,06,56,075,27,07,05,103,*76\r\n"
  ],
  [
    12.091893672943115,
    "$GPGSV,4,2,15,09,38,058,22,11,62,331,14,12,19,263,,13,04,191,*77\r\n"
  ],
  [
    12.09208059310913,
    "$GPGSV,4,3,15,17,16,155,,19,37,159,17,20,53,273,14,25,11,297,*71\r\n"
  ],
  [
    12.092224597930908,
    "$GPGSV,4,4,15,29,03,323,,30,00,134,,50,46,180,*4C\r\n"
  ],
  [
    12.092379331588745,
    "$GPGLL,3733.74980,N,12656.17232,E,080204.00,A,A*62\r\n"
  ],
  [
    13.098947048187256,
    "$GPRMC,080205.00,A,3733.75010,N,12656.17159,E,2.415,,230523,,,A*72\r\n"
  ],
  [
    13.09915542602539,
    "$GPVTG,,T,,M,2.415,N,4.473,K,A*25\r\n"
  ],
  [
    13.09939694404602,
    "$GPGGA,080205.00,3733.75010,N,12656.17159,E,1,06,1.33,40.4,M,18.4,M,,*63\r\n"
  ],
  [
    13.09958815574646,
    "$GPGSA,A,3,11,06,20,19,09,04,,,,,,,2.31,1.33,1.88*03\r\n"
  ],
  [
    13.099805116653442,
    "$GPGSV,4,1,15,04,12,039,11,05,30,253,01,06,56,075,28,07,05,103,*7B\r\n"
  ],
  [
    13.100016117095947,
    "$GPGSV,4,2,15,09,38,058,23,11,62,331,16,12,19,263,,13,04,191,*74\r\n"
  ],
  [
    13.100221872329712,
    "$GPGSV,4,3,15,17,16,155,,19,37,159,21,20,53,273,18,25,11,297,*78\r\n"
  ],
  [
    13.1003897190094,
    "$GPGSV,4,4,15,29,03,323,,30,00,134,,50,46,180,*4C\r\n"
  ],
  [
    13.100558757781982,
    "$GPGLL,3733.75010,N,12656.17159,E,080205.00,A,A*6C\r\n"
  ],
  [
    14.099606037139893,
    "$GPRMC,080206.00,A,3733.75102,N,12656.17005,E,3.357,262.69,230523,,,A*6C\r\n"
  ],
  [
    14.099914073944092,
    "$GPVTG,262.69,T,,M,3.357,N,6.217,K,A*34\r\n"
  ],
  [
    14.100419998168945,
    "$GPGGA,080206.00,3733.75102,N,12656.17005,E,1,06,1.33,41.2,M,18.4,M,,*6D\r\n"
  ],
  [
    14.100789308547974,
    "$GPGSA,A,3,11,06,20,19,09,04,,,,,,,2.31,1.33,1.88*03\r\n"
  ],
  [
    14.101210117340088,
    "$GPGSV,4,1,15,04,12,039,11,05,30,253,07,06,56,075,30,07,05,103,*74\r\n"
  ],
  [
    14.10162901878357,
    "$GPGSV,4,2,15,09,38,058,26,11,62,331,16,12,19,263,,13,04,191,*71\r\n"
  ],
  [
    14.102035999298096,
    "$GPGSV,4,3,15,17,16,155,,19,37,159,21,20,53,273,22,25,11,297,*71\r\n"
  ],
  [
    14.10238528251648,
    "$GPGSV,4,4,15,29,03,323,,30,00,134,,50,46,180,*4C\r\n"
  ],
  [
    14.102709770202637,
    "$GPGLL,3733.75102,N,12656.17005,E,080206.00,A,A*65\r\n"
  ],
  [
    15.1054368019104,
    "$GPRMC,080207.00,A,3733.75166,N,12656.16879,E,3.666,282.06,230523,,,A*6D\r\n"
  ],
  [
    15.10579800605774,
    "$GPVTG,282.06,T,,M,3.666,N,6.789,K,A*36\r\n"
  ],
  [
    15.10636019706726,
    "$GPGGA,080207.00,3733.75166,N,12656.16879,E,1,06,1.33,41.4,M,18.4,M,,*6A\r\n"
  ],
  [
    15.106760501861572,
    "$GPGSA,A,3,11,06,20,19,09,04,,,,,,,2.31,1.33,1.88*03\r\n"
  ],
  [
    15.107195854187012,
    "$GPGSV,4,1,15,04,12,039,12,05,30,253,11,06,56,075,30,07,05,103,*70\r\n"
  ],
  [
    15.107635259628296,
    "$GPGSV,4,2,15,09,38,058,27,11,62,331,18,12,19,263,,13,04,191,*7E\r\n"
  ],
  [
    15.108044624328613,
    "$GPGSV,4,3,15,17,16,155,,19,37,159,18,20,53,273,23,25,11,297,*7A\r\n"
  ],
  [
    15.108373165130615,
    "$GPGSV,4,4,15,29,03,323,,30,00,134,,50,46,180,*4C\r\n"
  ],
  [
    15.108697652816772,
    "$GPGLL,3733.75166,N,12656.16879,E,080207.00,A,A*64\r\n"
  ],
  [
    16.097938299179077,
    "$GPRMC,080208.00,A,3733.75235,N,12656.16772,E,3.885,290.82,230523,,,A*6F\r\n"
  ],
  [
    16.098238706588745,
    "$GPVTG,290.82,T,,M,3.885,N,7.196,K,A*33\r\n"
  ],
  [
    16.098755836486816,
    "$GPGGA,080208.00,3733.75235,N,12656.16772,E,1,06,1.33,42.0,M,18.4,M,,*63\r\n"
  ],
  [
    16.099127054214478,
    "$GPGSA,A,3,11,06,20,19,09,04,,,,,,,2.31,1.33,1.88*03\r\n"
  ],
  [
    16.09958291053772,
    "$GPGSV,4,1,15,04,12,039,13,05,30,253,13,06,56,075,29,07,05,103,*7B\r\n"
  ],
  [
    16.10001277923584,
    "$GPGSV,4,2,15,09,38,058,26,11,62,331,21,12,19,263,,13,04,191,*75\r\n"
  ],
  [
    16.100450038909912,
    "$GPGSV,4,3,15,17,16,155,,19,37,159,12,20,53,273,25,25,11,296,*77\r\n"
  ],
  [
    16.10078454017639,
    "$GPGSV,4,4,15,29,03,323,,30,00,134,,50,46,180,*4C\r\n"
  ],
  [
    16.101123809814453,
    "$GPGLL,3733.75235,N,12656.16772,E,080208.00,A,A*6A\r\n"
  ],
  [
    17.105140924453735,
    "$GPRMC,080209.00,A,3733.75296,N,12656.16670,E,4.034,294.68,230523,,,A*61\r\n"
  ],
  [
    17.10547947883606,
    "$GPVTG,294.68,T,,M,4.034,N,7.471,K,A*3A\r\n"
  ],
  [
    17.106011152267456,
    "$GPGGA,080209.00,3733.75296,N,12656.16670,E,1,06,1.33,42.5,M,18.4,M,,*6D\r\n"
  ],
  [
    17.106428623199463,
    "$GPGSA,A,3,11,06,20,19,09,04,,,,,,,2.31,1.33,1.88*03\r\n"
  ],
  [
    17.106876134872437,
    "$GPGSV,4,1,15,04,12,039,12,05,30,253,13,06,56,075,29,07,05,103,*7A\r\n"
  ],
  [
    17.107356071472168,
    "$GPGSV,4,2,15,09,38,058,26,11,62,331,20,12,19,263,,13,04,191,*74\r\n"
  ],
  [
    17.10777759552002,
    "$GPGSV,4,3,15,17,16,155,,19,37,159,10,20,53,273,24,25,11,296,*74\r\n"
  ],
  [
    17.108383655548096,
    "$GPGSV,4,4,15,29,03,323,,30,00,134,,50,46,180,*4C\r\n"
  ],
  [
    17.108793258666992,
    "$GPGLL,3733.75296,N,12656.16670,E,080209.00,A,A*61\r\n"
  ],
  [
    18.104944467544556,
    "$GPRMC,080210.00,A,3733.75327,N,12656.16564,E,3.813,296.18,230523,,,A*6B\r\n"
  ],
  [
    18.10508441925049,
    "$GPVTG,296.18,T,,M,3.813,N,7.062,K,A*33\r\n"
  ],
  [
    18.105303525924683,
    "$GPGGA,080210.00,3733.75327,N,12656.16564,E,1,05,2.36,42.5,M,18.4,M,,*6D\r\n"
  ],
  [
    18.105466604232788,
    "$GPGSA,A,3,11,06,20,09,04,,,,,,,,3.92,2.36,3.13*05\r\n"
  ],
  [
    18.105660438537598,
    "$GPGSV,4,1,15,04,12,039,11,05,30,253,10,06,56,075,31,07,05,103,*73\r\n"
  ],
  [
    18.105846881866455,
    "$GPGSV,4,2,15,09,38,058,25,11,62,331,21,12,19,263,,13,04,191,*76\r\n"
  ],
  [
    18.106033086776733,
    "$GPGSV,4,3,15,17,16,155,,19,37,159,09,20,53,273,23,25,11,296,*7B\r\n"
  ],
  [
    18.106178522109985,
    "$GPGSV,4,4,15,29,03,323,,30,00,134,,50,46,180,*4C\r\n"
  ],
  [
    18.10633134841919,
    "$GPGLL,3733.75327,N,12656.16564,E,080210.00,A,A*64\r\n"
  ],
  [
    19.09587287902832,
    "$GPRMC,080211.00,A,3733.75337,N,12656.16417,E,3.744,293.69,230523,,,A*60\r\n"
  ],
  [
    19.09600853919983,
    "$GPVTG,293.69,T,,M,3.744,N,6.934,K,A*36\r\n"
  ],
  [
    19.096219539642334,
    "$GPGGA,080211.00,3733.75337,N,12656.16417,E,1,05,2.36,42.6,M,18.4,M,,*6B\r\n"
  ],
  [
    19.09638524055481,
    "$GPGSA,A,3,11,06,20,09,04,,,,,,,,3.92,2.36,3.13*05\r\n"
  ],
  [
    19.096582174301147,
    "$GPGSV,4,1,15,04,12,039,12,05,30,253,09,06,56,075,31,07,05,103,*78\r\n"
  ],
  [
    19.096768856048584,
    "$GPGSV,4,2,15,09,38,058,25,11,62,331,22,12,19,263,,13,04,191,*75\r\n"
  ],
  [
    19.0969557762146,
    "$GPGSV,4,3,15,17,16,155,,19,37,159,09,20,53,273,21,25,11,296,*79\r\n"
  ],
  [
    19.09710144996643,
    "$GPGSV,4,4,15,29,03,323,,30,00,134,,50,46,180,*4C\r\n"
  ],
  [
    19.097249269485474,
    "$GPGLL,3733.75337,N,12656.16417,E,080211.00,A,A*61\r\n"
  ],
  [
    20.102256536483765,
    "$GPRMC,080212.00,A,3733.75294,N,12656.16299,E,3.570,285.18,230523,,,A*6F\r\n"
  ],
  [
    20.102683544158936,
    "$GPVTG,285.18,T,,M,3.570,N,6.611,K,A*3A\r\n"
  ],
  [
    20.103266716003418,
    "$GPGGA,080212.00,3733.75294,N,12656.16299,E,1,05,2.36,42.5,M,18.4,M,,*63\r\n"
  ],
  [
    20.103689193725586,
    "$GPGSA,A,3,11,06,20,09,04,,,,,,,,3.92,2.36,3.13*05\r\n"
  ],
  [
    20.10414171218872,
    "$GPGSV,4,1,15,04,12,039,12,05,30,253,09,06,56,075,31,07,05,103,*78\r\n"
  ],
  [
    20.104610919952393,
    "$GPGSV,4,2,15,09,38,058,28,11,62,331,24,12,19,263,,13,04,191,*7E\r\n"
  ],
  [
    20.105076789855957,
    "$GPGSV,4,3,15,17,16,155,,19,37,159,09,20,53,273,20,25,11,296,*78\r\n"
  ],
  [
    20.105419158935547,
    "$GPGSV,4,4,15,29,03,323,,30,00,134,,50,46,180,*4C\r\n"
  ],
  [
    20.105574369430542,
    "$GPGLL,3733.75294,N,12656.16299,E,080212.00,A,A*6A\r\n"
  ],
  [
    21.101068258285522,
    "$GPRMC,080213.00,A,3733.75279,N,12656.16150,E,3.838,277.55,230523,,,A*6E\r\n"
  ],
  [
    21.101234912872314,
    "$GPVTG,277.55,T,,M,3.838,N,7.108,K,A*31\r\n"
  ],
  [
    21.101868152618408,
    "$GPGGA,080213.00,3733.75279,N,12656.16150,E,1,05,2.36,42.5,M,18.4,M,,*67\r\n"
  ],
  [
    21.10227608680725,
    "$GPGSA,A,3,11,06,20,09,04,,,,,,,,3.92,2.36,3.13*05\r\n"
  ],
  [
    21.10252857208252,
    "$GPGSV,4,1,15,04,12,039,12,05,30,253,,06,56,075,32,07,05,103,*72\r\n"
  ],
  [
    21.102680444717407,
    "$GPGSV,4,2,15,09,38,058,31,11,62,331,22,12,19,263,,13,04,191,*70\r\n"
  ],
  [
    21.102830171585083,
    "$GPGSV,4,3,15,17,16,155,,19,37,159,09,20,53,273,19,25,11,296,*72\r\n"
  ],
  [
    21.102946758270264,
    "$GPGSV,4,4,15,29,03,323,,30,01,133,,50,46,180,*4A\r\n"
  ],
  [
    21.103065252304077,
    "$GPGLL,3733.75279,N,12656.16150,E,080213.00,A,A*6E\r\n"
  ],
  [
    22.103036165237427,
    "$GPRMC,080214.00,A,3733.75231,N,12656.16072,E,3.569,271.73,230523,,,A*6F\r\n"
  ],
  [
    22.10339117050171,
    "$GPVTG,271.73,T,,M,3.569,N,6.610,K,A*35\r\n"
  ],
  [
    22.103956699371338,
    "$GPGGA,080214.00,3733.75231,N,12656.16072,E,1,05,2.36,42.6,M,18.4,M,,*6E\r\n"
  ],
  [
    22.104317903518677,
    "$GPGSA,A,3,11,06,20,09,04,,,,,,,,3.92,2.36,3.13*05\r\n"
  ],
  [
    22.104753255844116,
    "$GPGSV,4,1,15,04,12,039,12,05,30,253,,06,56,075,32,07,05,103,*72\r\n"
  ],
  [
    22.105164289474487,
    "$GPGSV,4,2,15,09,38,058,30,11,62,331,24,12,19,263,,13,04,191,*77\r\n"
  ],
  [
    22.105595111846924,
    "$GPGSV,4,3,15,17,16,155,,19,37,159,09,20,53,273,19,25,11,296,*72\r\n"
  ],
  [
    22.10591459274292,
    "$GPGSV,4,4,15,29,03,323,,30,01,133,,50,46,180,*4A\r\n"
  ],
  [
    22.106239318847656,
    "$GPGLL,3733.75231,N,12656.16072,E,080214.00,A,A*64\r\n"
  ],
  [
    23.098953247070312,
    "$GPRMC,080215.00,A,3733.75150,N,12656.16027,E,3.106,263.64,230523,,,A*62\r\n"
  ],
  [
    23.09925103187561,
    "$GPVTG,263.64,T,,M,3.106,N,5.752,K,A*39\r\n"
  ],
  [
    23.099747896194458,
    "$GPGGA,080215.00,3733.75150,N,12656.16027,E,1,05,2.36,42.5,M,18.4,M,,*68\r\n"
  ],
  [
    23.100120067596436,
    "$GPGSA,A,3,11,06,20,09,04,,,,,,,,3.92,2.36,3.13*05\r\n"
  ],
  [
    23.100568056106567,
    "$GPGSV,4,1,15,04,12,039,12,05,30,253,,06,56,075,30,07,05,103,*70\r\n"
  ],
  [
    23.100993871688843,
    "$GPGSV,4,2,15,09,38,058,23,11,62,331,23,12,19,263,,13,04,191,*72\r\n"
  ],
  [
    23.10143232345581,
    "$GPGSV,4,3,15,17,16,155,,19,37,159,09,20,53,273,18,25,11,296,*73\r\n"
  ],
  [
    23.10177969932556,
    "$GPGSV,4,4,15,29,03,323,,30,01,133,,50,46,180,*4A\r\n"
  ],
  [
    23.10213613510132,
    "$GPGLL,3733.75150,N,12656.16027,E,080215.00,A,A*61\r\n"
  ],
  [
    24.095350742340088,
    "$GPRMC,080216.00,A,3733.75068,N,12656.15936,E,3.295,251.08,230523,,,A*63\r\n"
  ],
  [
    24.095816135406494,
    "$GPVTG,251.08,T,,M,3.295,N,6.102,K,A*3B\r\n"
  ],
  [
    24.096524715423584,
    "$GPGGA,080216.00,3733.75068,N,12656.15936,E,1,06,1.33,42.3,M,18.4,M,,*68\r\n"
  ],
  [
    24.09703516960144,
    "$GPGSA,A,3,11,06,20,19,09,04,,,,,,,2.30,1.33,1.88*02\r\n"
  ],
  [
    24.09756302833557,
    "$GPGSV,4,1,15,04,12,039,11,05,30,253,,06,56,075,20,07,05,103,*72\r\n"
  ],
  [
    24.098041534423828,
    "$GPGSV,4,2,15,09,38,058,23,11,62,331,22,12,19,263,,13,04,191,*73\r\n"
  ],
  [
    24.09852623939514,
    "$GPGSV,4,3,15,17,16,155,,19,37,159,09,20,53,273,20,25,11,296,*78\r\n"
  ],
  [
    24.098912954330444,
    "$GPGSV,4,4,15,29,03,323,,30,01,133,,50,46,180,*4A\r\n"
  ],
  [
    24.099289178848267,
    "$GPGLL,3733.75068,N,12656.15936,E,080216.00,A,A*62\r\n"
  ],
  [
    25.095374822616577,
    "$GPRMC,080217.00,A,3733.74982,N,12656.15875,E,3.006,,230523,,,A*70\r\n"
  ],
  [
    25.09566831588745,
    "$GPVTG,,T,,M,3.006,N,5.567,K,A*27\r\n"
  ],
  [
    25.096242666244507,
    "$GPGGA,080217.00,3733.74982,N,12656.15875,E,1,06,1.33,42.0,M,18.4,M,,*60\r\n"
  ],
  [
    25.096691846847534,
    "$GPGSA,A,3,11,06,20,19,09,04,,,,,,,2.30,1.33,1.88*02\r\n"
  ],
  [
    25.09711194038391,
    "$GPGSV,4,1,15,04,12,039,12,05,30,253,,06,56,075,18,07,05,103,*7A\r\n"
  ],
  [
    25.097261667251587,
    "$GPGSV,4,2,15,09,38,058,21,11,62,331,20,12,19,263,,13,04,191,*73\r\n"
  ],
  [
    25.097415685653687,
    "$GPGSV,4,3,15,17,16,155,,19,37,159,09,20,53,273,20,25,11,296,*78\r\n"
  ],
  [
    25.097532987594604,
    "$GPGSV,4,4,15,29,03,323,,30,01,133,,50,46,180,*4A\r\n"
  ],
  [
    25.097673416137695,
    "$GPGLL,3733.74982,N,12656.15875,E,080217.00,A,A*69\r\n"
  ],
  [
    26.097793102264404,
    "$GPRMC,080218.00,A,3733.74874,N,12656.15841,E,3.131,,230523,,,A*75\r\n"
  ],
  [
    26.098097324371338,
    "$GPVTG,,T,,M,3.131,N,5.799,K,A*21\r\n"
  ],
  [
    26.098697662353516,
    "$GPGGA,080218.00,3733.74874,N,12656.15841,E,1,06,1.33,41.9,M,18.4,M,,*6A\r\n"
  ],
  [
    26.09897756576538,
    "$GPGSA,A,3,11,06,20,19,09,04,,,,,,,2.30,1.33,1.88*02\r\n"
  ],
  [
    26.09921932220459,
    "$GPGSV,4,1,15,04,12,039,12,05,30,253,,06,56,075,16,07,05,103,*74\r\n"
  ],
  [
    26.0994234085083,
    "$GPGSV,4,2,15,09,38,058,20,11,62,331,20,12,19,263,,13,04,191,*72\r\n"
  ],
  [
    26.099610805511475,
    "$GPGSV,4,3,15,17,16,155,,19,37,159,09,20,53,273,23,25,11,296,*7B\r\n"
  ],
  [
    26.099756002426147,
    "$GPGSV,4,4,15,29,03,323,,30,01,133,,50,46,180,*4A\r\n"
  ],
  [
    26.099904537200928,
    "$GPGLL,3733.74874,N,12656.15841,E,080218.00,A,A*69\r\n"
  ],
  [
    27.09565234184265,
    "$GPRMC,080219.00,A,3733.74770,N,12656.15851,E,2.966,226.69,230523,,,A*62\r\n"
  ],
  [
    27.09597134590149,
    "$GPVTG,226.69,T,,M,2.966,N,5.493,K,A*34\r\n"
  ],
  [
    27.096534490585327,
    "$GPGGA,080219.00,3733.74770,N,12656.15851,E,1,06,1.33,41.6,M,18.4,M,,*6E\r\n"
  ],
  [
    27.09689974784851,
    "$GPGSA,A,3,11,06,20,19,09,04,,,,,,,2.30,1.33,1.88*02\r\n"
  ],
  [
    27.097060680389404,
    "$GPGSV,4,1,15,04,12,039,12,05,30,253,,06,56,075,14,07,05,103,*76\r\n"
  ],
  [
    27.09721279144287,
    "$GPGSV,4,2,15,09,38,058,17,11,62,331,20,12,19,263,,13,04,191,*76\r\n"
  ],
  [
    27.09739065170288,
    "$GPGSV,4,3,15,17,16,155,,19,37,159,09,20,53,273,25,25,11,296,*7D\r\n"
  ],
  [
    27.09752082824707,
    "$GPGSV,4,4,15,29,03,323,,30,01,133,,50,46,180,*4A\r\n"
  ],
  [
    27.0976505279541,
    "$GPGLL,3733.74770,N,12656.15851,E,080219.00,A,A*62\r\n"
  ],
  [
    28.092485427856445,
    "$GPRMC,080220.00,A,3733.74818,N,12656.15852,E,1.336,,230523,,,A*71\r\n"
  ],
  [
    28.092782258987427,
    "$GPVTG,,T,,M,1.336,N,2.475,K,A*20\r\n"
  ],
  [
    28.0935800075531,
    "$GPGGA,080220.00,3733.74818,N,12656.15852,E,1,05,2.36,41.1,M,18.4,M,,*64\r\n"
  ],
  [
    28.093809366226196,
    "$GPGSA,A,3,11,06,20,09,04,,,,,,,,3.92,2.36,3.13*05\r\n"
  ],
  [
    28.09395933151245,
    "$GPGSV,4,1,15,04,12,039,13,05,30,253,,06,56,075,11,07,05,103,*72\r\n"
  ],
  [
    28.09410834312439,
    "$GPGSV,4,2,15,09,38,058,16,11,62,331,21,12,19,263,,13,04,191,*76\r\n"
  ],
  [
    28.094257831573486,
    "$GPGSV,4,3,15,17,16,155,,19,37,159,06,20,53,273,24,25,11,296,*73\r\n"
  ],
  [
    28.09438467025757,
    "$GPGSV,4,4,15,29,03,323,,30,01,133,,50,46,180,*4A\r\n"
  ],
  [
    28.094504594802856,
    "$GPGLL,3733.74818,N,12656.15852,E,080220.00,A,A*6A\r\n"
  ],
  [
    29.09407114982605,
    "$GPRMC,080221.00,A,3733.74780,N,12656.15860,E,1.247,,230523,,,A*78\r\n"
  ],
  [
    29.09443497657776,
    "$GPVTG,,T,,M,1.247,N,2.309,K,A*2B\r\n"
  ],
  [
    29.095008373260498,
    "$GPGGA,080221.00,3733.74780,N,12656.15860,E,1,04,2.57,40.9,M,18.4,M,,*65\r\n"
  ],
  [
    29.095438718795776,
    "$GPGSA,A,3,11,20,09,04,,,,,,,,,4.21,2.57,3.33*09\r\n"
  ],
  [
    29.09590721130371,
    "$GPGSV,4,1,15,04,12,039,13,05,30,253,,06,56,075,08,07,05,103,*7A\r\n"
  ],
  [
    29.096378087997437,
    "$GPGSV,4,2,15,09,38,058,13,11,62,331,19,12,19,263,,13,04,191,*78\r\n"
  ],
  [
    29.096834897994995,
    "$GPGSV,4,3,15,17,16,155,,19,37,159,06,20,53,273,23,25,11,296,*74\r\n"
  ],
  [
    29.09717869758606,
    "$GPGSV,4,4,15,29,03,323,,30,01,133,,50,46,180,*4A\r\n"
  ],
  [
    29.09754467010498,
    "$GPGLL,3733.74780,N,12656.15860,E,080221.00,A,A*64\r\n"
  ],
  [
    30.08385920524597,
    "$GPRMC,080222.00,A,3733.74725,N,12656.15749,E,1.781,,230523,,,A*7F\r\n"
  ],
  [
    30.084131717681885,
    "$GPVTG,,T,,M,1.781,N,3.299,K,A*2D\r\n"
  ],
  [
    30.084645986557007,
    "$GPGGA,080222.00,3733.74725,N,12656.15749,E,1,04,2.57,40.6,M,18.4,M,,*62\r\n"
  ],
  [
    30.085017204284668,
    "$GPGSA,A,3,11,20,09,04,,,,,,,,,4.21,2.57,3.33*09\r\n"
  ],
  [
    30.085437297821045,
    "$GPGSV,4,1,15,04,12,039,13,05,30,253,,06,56,075,08,07,05,103,*7A\r\n"
  ],
  [
    30.085667848587036,
    "$GPGSV,4,2,15,09,38,058,12,11,62,331,17,12,19,263,,13,04,191,*77\r\n"
  ],
  [
    30.08586072921753,
    "$GPGSV,4,3,15,17,16,155,,19,37,159,06,20,53,273,19,25,11,296,*7D\r\n"
  ],
  [
    30.086005926132202,
    "$GPGSV,4,4,15,29,03,323,,30,01,133,,50,46,180,*4A\r\n"
  ],
  [
    30.086154460906982,
    "$GPGLL,3733.74725,N,12656.15749,E,080222.00,A,A*6C\r\n"
  ],
  [
    31.097031593322754,
    "$GPRMC,080223.00,A,3733.74674,N,12656.15762,E,1.496,,230523,,,A*77\r\n"
  ],
  [
    31.09734272956848,
    "$GPVTG,,T,,M,1.496,N,2.771,K,A*2A\r\n"
  ],
  [
    31.0978741645813,
    "$GPGGA,080223.00,3733.74674,N,12656.15762,E,1,04,2.58,40.4,M,18.4,M,,*62\r\n"
  ],
  [
    31.0982506275177,
    "$GPGSA,A,3,11,20,09,04,,,,,,,,,4.21,2.58,3.33*06\r\n"
  ],
  [
    31.09868288040161,
    "$GPGSV,4,1,15,04,12,039,10,05,30,253,,06,56,075,07,07,05,103,*76\r\n"
  ],
  [
    31.099270343780518,
    "$GPGSV,4,2,15,09,38,058,11,11,62,331,15,12,19,263,,13,04,191,*76\r\n"
  ],
  [
    31.099628448486328,
    "$GPGSV,4,3,15,17,16,155,,19,37,159,06,20,53,273,16,25,11,296,*72\r\n"
  ],
  [
    31.099775075912476,
    "$GPGSV,4,4,15,29,03,323,,30,01,133,,50,46,180,*4A\r\n"
  ],
  [
    31.09992480278015,
    "$GPGLL,3733.74674,N,12656.15762,E,080223.00,A,A*61\r\n"
  ],
  [
    32.095054388046265,
    "$GPRMC,080224.00,A,3733.74610,N,12656.15830,E,1.360,,230523,,,A*74\r\n"
  ],
  [
    32.09537482261658,
    "$GPVTG,,T,,M,1.360,N,2.518,K,A*29\r\n"
  ],
  [
    32.09595561027527,
    "$GPGGA,080224.00,3733.74610,N,12656.15830,E,1,03,2.66,40.5,M,18.4,M,,*64\r\n"
  ],
  [
    32.09633946418762,
    "$GPGSA,A,3,11,20,09,,,,,,,,,,6.42,2.66,5.85*03\r\n"
  ],
  [
    32.09676909446716,
    "$GPGSV,4,1,15,04,12,039,08,05,30,253,,06,56,075,07,07,05,103,*7F\r\n"
  ],
  [
    32.09719634056091,
    "$GPGSV,4,2,15,09,38,058,12,11,62,331,16,12,19,263,,13,04,191,*76\r\n"
  ],
  [
    32.097636222839355,
    "$GPGSV,4,3,15,17,16,155,,19,37,159,06,20,53,273,14,25,11,296,*70\r\n"
  ],
  [
    32.097970485687256,
    "$GPGSV,4,4,15,29,03,323,,30,01,133,,50,46,180,*4A\r\n"
  ],
  [
    32.09830951690674,
    "$GPGLL,3733.74610,N,12656.15830,E,080224.00,A,A*6C\r\n"
  ],
  [
    33.09426975250244,
    "$GPRMC,080225.00,A,3733.74585,N,12656.15828,E,1.154,,230523,,,A*76\r\n"
  ],
  [
    33.09459447860718,
    "$GPVTG,,T,,M,1.154,N,2.138,K,A*2A\r\n"
  ],
  [
    33.095174074172974,
    "$GPGGA,080225.00,3733.74585,N,12656.15828,E,1,03,2.66,40.6,M,18.4,M,,*60\r\n"
  ],
  [
    33.09551501274109,
    "$GPGSA,A,3,11,20,09,,,,,,,,,,6.42,2.66,5.85*03\r\n"
  ],
  [
    33.09594464302063,
    "$GPGSV,4,1,15,04,12,039,07,05,30,253,,06,56,075,07,07,05,103,*70\r\n"
  ],
  [
    33.09638857841492,
    "$GPGSV,4,2,15,09,38,058,12,11,62,331,16,12,19,263,,13,04,191,*76\r\n"
  ],
  [
    33.09680652618408,
    "$GPGSV,4,3,15,17,16,155,,19,37,159,,20,53,273,10,25,11,296,*72\r\n"
  ],
  [
    33.0971417427063,
    "$GPGSV,4,4,15,29,03,323,,30,01,133,,50,46,180,*4A\r\n"
  ],
  [
    33.097519874572754,
    "$GPGLL,3733.74585,N,12656.15828,E,080225.00,A,A*6B\r\n"
  ],
  [
    34.08788585662842,
    "$GPRMC,080226.00,A,3733.74598,N,12656.15774,E,0.783,,230523,,,A*72\r\n"
  ],
  [
    34.08819317817688,
    "$GPVTG,,T,,M,0.783,N,1.451,K,A*2E\r\n"
  ],
  [
    34.08882713317871,
    "$GPGGA,080226.00,3733.74598,N,12656.15774,E,1,03,5.78,40.5,M,18.4,M,,*62\r\n"
  ],
  [
    34.08920955657959,
    "$GPGSA,A,3,11,06,09,,,,,,,,,,14.74,5.78,13.56*00\r\n"
  ],
  [
    34.089667558670044,
    "$GPGSV,4,1,15,04,12,039,08,05,30,253,,06,56,075,09,07,05,103,*71\r\n"
  ],
  [
    34.09009528160095,
    "$GPGSV,4,2,15,09,38,058,11,11,62,331,14,12,19,263,,13,04,191,*77\r\n"
  ],
  [
    34.09051442146301,
    "$GPGSV,4,3,15,17,16,155,,19,37,159,,20,53,273,08,25,11,296,*7B\r\n"
  ],
  [
    34.09084677696228,
    "$GPGSV,4,4,15,29,03,323,,30,01,133,,50,46,180,*4A\r\n"
  ],
  [
    34.09118628501892,
    "$GPGLL,3733.74598,N,12656.15774,E,080226.00,A,A*62\r\n"
  ],
  [
    35.09663200378418,
    "$GPRMC,080227.00,A,3733.74502,N,12656.15759,E,1.296,,230523,,,A*7F\r\n"
  ],
  [
    35.096922636032104,
    "$GPVTG,,T,,M,1.296,N,2.400,K,A*29\r\n"
  ],
  [
    35.097456216812134,
    "$GPGGA,080227.00,3733.74502,N,12656.15759,E,1,03,5.73,40.2,M,18.4,M,,*63\r\n"
  ],
  [
    35.09784436225891,
    "$GPGSA,A,3,11,06,09,,,,,,,,,,14.71,5.73,13.54*0C\r\n"
  ],
  [
    35.09832143783569,
    "$GPGSV,4,1,15,04,12,039,08,05,30,253,07,06,56,075,09,07,05,103,*76\r\n"
  ],
  [
    35.09874963760376,
    "$GPGSV,4,2,15,09,38,058,11,11,62,331,14,12,19,263,04,13,04,191,*73\r\n"
  ],
  [
    35.099146604537964,
    "$GPGSV,4,3,15,17,16,155,,19,37,159,,20,53,273,08,25,11,296,*7B\r\n"
  ],
  [
    35.09947228431702,
    "$GPGSV,4,4,15,29,03,323,,30,01,133,,50,46,180,*4A\r\n"
  ],
  [
    35.09979486465454,
    "$GPGLL,3733.74502,N,12656.15759,E,080227.00,A,A*6F\r\n"
  ],
  [
    36.0960431098938,
    "$GPRMC,080228.00,A,3733.74488,N,12656.15649,E,1.347,,230523,,,A*7E\r\n"
  ],
  [
    36.09636855125427,
    "$GPVTG,,T,,M,1.347,N,2.495,K,A*28\r\n"
  ],
  [
    36.09692049026489,
    "$GPGGA,080228.00,3733.74488,N,12656.15649,E,1,03,5.73,39.9,M,18.4,M,,*6A\r\n"
  ],
  [
    36.09726428985596,
    "$GPGSA,A,3,11,06,09,,,,,,,,,,14.71,5.73,13.55*0D\r\n"
  ],
  [
    36.0977144241333,
    "$GPGSV,4,1,15,04,12,039,08,05,30,253,11,06,56,075,09,07,05,103,*71\r\n"
  ],
  [
    36.098153829574585,
    "$GPGSV,4,2,15,09,38,058,13,11,62,331,14,12,19,263,07,13,04,191,*72\r\n"
  ],
  [
    36.098576068878174,
    "$GPGSV,4,3,15,17,16,155,,19,37,159,,20,53,273,08,25,11,296,*7B\r\n"
  ],
  [
    36.09890699386597,
    "$GPGSV,4,4,15,29,03,323,,30,01,133,,50,46,180,*4A\r\n"
  ],
  [
    36.09924292564392,
    "$GPGLL,3733.74488,N,12656.15649,E,080228.00,A,A*63\r\n"
  ],
  [
    37.09324264526367,
    "$GPRMC,080229.00,A,3733.74522,N,12656.15621,E,0.874,,230523,,,A*7A\r\n"
  ],
  [
    37.093570709228516,
    "$GPVTG,,T,,M,0.874,N,1.618,K,A*26\r\n"
  ],
  [
    37.094141721725464,
    "$GPGGA,080229.00,3733.74522,N,12656.15621,E,1,03,5.73,39.6,M,18.4,M,,*6B\r\n"
  ],
  [
    37.094544887542725,
    "$GPGSA,A,3,11,06,09,,,,,,,,,,14.72,5.73,13.55*0E\r\n"
  ],
  [
    37.09501266479492,
    "$GPGSV,4,1,15,04,12,039,08,05,30,253,12,06,56,075,09,07,05,103,*72\r\n"
  ],
  [
    37.095438718795776,
    "$GPGSV,4,2,15,09,38,058,14,11,62,331,13,12,19,263,08,13,04,191,*7D\r\n"
  ],
  [
    37.095834493637085,
    "$GPGSV,4,3,15,17,16,155,,19,37,159,,20,53,273,08,25,11,296,*7B\r\n"
  ],
  [
    37.096163272857666,
    "$GPGSV,4,4,15,29,03,323,,30,01,133,,50,46,180,*4A\r\n"
  ],
  [
    37.09649443626404,
    "$GPGLL,3733.74522,N,12656.15621,E,080229.00,A,A*6D\r\n"
  ],
  [
    38.09173941612244,
    "$GPRMC,080230.00,A,3733.74505,N,12656.15580,E,0.764,,230523,,,A*71\r\n"
  ],
  [
    38.092031717300415,
    "$GPVTG,,T,,M,0.764,N,1.415,K,A*27\r\n"
  ],
  [
    38.092602252960205,
    "$GPGGA,080230.00,3733.74505,N,12656.15580,E,1,04,2.49,39.2,M,18.4,M,,*63\r\n"
  ],
  [
    38.09293818473816,
    "$GPGSA,A,3,11,06,20,09,,,,,,,,,6.00,2.49,5.46*01\r\n"
  ],
  [
    38.09335446357727,
    "$GPGSV,4,1,15,04,12,039,08,05,30,253,,06,56,075,09,07,05,103,*71\r\n"
  ],
  [
    38.0937876701355,
    "$GPGSV,4,2,15,09,38,058,13,11,62,331,18,12,19,263,09,13,04,191,*70\r\n"
  ],
  [
    38.094212770462036,
    "$GPGSV,4,3,15,17,16,155,,19,37,159,,20,53,273,20,25,11,296,*71\r\n"
  ],
  [
    38.09455966949463,
    "$GPGSV,4,4,15,29,03,323,,30,01,133,,50,46,180,*4A\r\n"
  ],
  [
    38.094905614852905,
    "$GPGLL,3733.74505,N,12656.15580,E,080230.00,A,A*68\r\n"
  ],
  [
    39.091740131378174,
    "$GPRMC,080231.00,A,3733.74493,N,12656.15662,E,0.271,,230523,,,A*70\r\n"
  ],
  [
    39.09205174446106,
    "$GPVTG,,T,,M,0.271,N,0.501,K,A*23\r\n"
  ],
  [
    39.09263324737549,
    "$GPGGA,080231.00,3733.74493,N,12656.15662,E,1,03,2.57,38.9,M,18.4,M,,*61\r\n"
  ],
  [
    39.09299063682556,
    "$GPGSA,A,3,11,20,09,,,,,,,,,,6.13,2.57,5.56*0B\r\n"
  ],
  [
    39.093425989151,
    "$GPGSV,4,1,15,04,12,039,08,05,30,253,,06,56,075,03,07,05,103,*7B\r\n"
  ],
  [
    39.09386849403381,
    "$GPGSV,4,2,15,09,38,058,11,11,62,331,23,12,19,263,08,13,04,191,*7B\r\n"
  ],
  [
    39.09428262710571,
    "$GPGSV,4,3,15,17,16,155,,19,37,159,,20,53,273,23,25,11,296,*72\r\n"
  ],
  [
    39.09462356567383,
    "$GPGSV,4,4,15,29,03,323,,30,01,133,,50,46,180,*4A\r\n"
  ],
  [
    39.09496283531189,
    "$GPGLL,3733.74493,N,12656.15662,E,080231.00,A,A*68\r\n"
  ],
  [
    40.090574502944946,
    "$GPRMC,080232.00,A,3733.74431,N,12656.15765,E,0.612,,230523,,,A*7C\r\n"
  ],
  [
    40.0908784866333,
    "$GPVTG,,T,,M,0.612,N,1.133,K,A*26\r\n"
  ],
  [
    40.091450691223145,
    "$GPGGA,080232.00,3733.74431,N,12656.15765,E,1,03,2.57,38.4,M,18.4,M,,*61\r\n"
  ],
  [
    40.091797828674316,
    "$GPGSA,A,3,11,20,09,,,,,,,,,,6.13,2.57,5.56*0B\r\n"
  ],
  [
    40.09222912788391,
    "$GPGSV,4,1,15,04,12,039,09,05,30,253,,06,56,075,07,07,05,103,*7E\r\n"
  ],
  [
    40.09268927574158,
    "$GPGSV,4,2,15,09,38,058,10,11,62,331,23,12,19,263,08,13,04,191,*7A\r\n"
  ],
  [
    40.09310746192932,
    "$GPGSV,4,3,15,17,16,155,,19,37,159,,20,53,273,30,25,11,296,*70\r\n"
  ],
  [
    40.093465089797974,
    "$GPGSV,4,4,15,29,03,323,,30,01,133,,50,46,180,*4A\r\n"
  ],
  [
    40.09380578994751,
    "$GPGLL,3733.74431,N,12656.15765,E,080232.00,A,A*65\r\n"
  ],
  [
    41.090790033340454,
    "$GPRMC,080233.00,A,3733.74409,N,12656.15760,E,0.523,,230523,,,A*72\r\n"
  ],
  [
    41.09109878540039,
    "$GPVTG,,T,,M,0.523,N,0.969,K,A*21\r\n"
  ],
  [
    41.09168767929077,
    "$GPGGA,080233.00,3733.74409,N,12656.15760,E,1,04,2.57,37.9,M,18.4,M,,*6B\r\n"
  ],
  [
    41.09210133552551,
    "$GPGSA,A,3,11,06,20,09,,,,,,,,,6.18,2.57,5.62*01\r\n"
  ],
  [
    41.092613697052,
    "$GPGSV,4,1,15,04,12,039,09,05,30,253,,06,56,075,17,07,05,103,*7F\r\n"
  ],
  [
    41.09305381774902,
    "$GPGSV,4,2,15,09,38,058,10,11,62,331,22,12,19,263,08,13,04,191,*7B\r\n"
  ],
  [
    41.093480348587036,
    "$GPGSV,4,3,15,17,16,155,,19,37,159,,20,53,273,26,25,11,296,*77\r\n"
  ],
  [
    41.09381341934204,
    "$GPGSV,4,4,15,29,03,323,,30,01,133,,50,46,180,*4A\r\n"
  ],
  [
    41.09415364265442,
    "$GPGLL,3733.74409,N,12656.15760,E,080233.00,A,A*6A\r\n"
  ],
  [
    42.09022831916809,
    "$GPRMC,080234.00,A,3733.74256,N,12656.15696,E,0.783,,230523,,,A*79\r\n"
  ],
  [
    42.09053325653076,
    "$GPVTG,,T,,M,0.783,N,1.451,K,A*2E\r\n"
  ],
  [
    42.09107780456543,
    "$GPGGA,080234.00,3733.74256,N,12656.15696,E,1,05,2.50,37.2,M,18.4,M,,*65\r\n"
  ],
  [
    42.09146237373352,
    "$GPGSA,A,3,11,06,20,09,04,,,,,,,,4.01,2.50,3.13*08\r\n"
  ],
  [
    42.0918824672699,
    "$GPGSV,4,1,15,04,12,039,09,05,30,253,04,06,56,075,24,07,05,103,*7B\r\n"
  ],
  [
    42.09230041503906,
    "$GPGSV,4,2,15,09,38,058,10,11,62,331,21,12,19,263,08,13,04,191,*78\r\n"
  ],
  [
    42.092718839645386,
    "$GPGSV,4,3,15,17,16,155,,19,37,159,14,20,53,273,24,25,11,296,*70\r\n"
  ],
  [
    42.09303569793701,
    "$GPGSV,4,4,15,29,03,323,,30,01,133,,50,46,180,*4A\r\n"
  ],
  [
    42.0933632850647,
    "$GPGLL,3733.74256,N,12656.15696,E,080234.00,A,A*69\r\n"
  ],
  [
    43.09782814979553,
    "$GPRMC,080235.00,A,3733.74138,N,12656.15691,E,1.109,,230523,,,A*71\r\n"
  ],
  [
    43.09812569618225,
    "$GPVTG,,T,,M,1.109,N,2.053,K,A*2E\r\n"
  ],
  [
    43.098676681518555,
    "$GPGGA,080235.00,3733.74138,N,12656.15691,E,1,05,2.50,36.8,M,18.4,M,,*63\r\n"
  ],
  [
    43.09906625747681,
    "$GPGSA,A,3,11,06,20,09,04,,,,,,,,4.01,2.50,3.13*08\r\n"
  ],
  [
    43.0995237827301,
    "$GPGSV,4,1,15,04,12,039,09,05,31,253,08,06,56,075,21,07,05,103,*73\r\n"
  ],
  [
    43.099979877471924,
    "$GPGSV,4,2,15,09,38,058,10,11,62,331,20,12,19,263,08,13,04,191,*79\r\n"
  ],
  [
    43.10041284561157,
    "$GPGSV,4,3,15,17,16,155,,19,37,159,13,20,53,273,20,25,11,296,*73\r\n"
  ],
  [
    43.10074472427368,
    "$GPGSV,4,4,15,29,03,323,,30,01,133,,50,46,180,*4A\r\n"
  ],
  [
    43.10107207298279,
    "$GPGLL,3733.74138,N,12656.15691,E,080235.00,A,A*64\r\n"
  ],
  [
    44.09843063354492,
    "$GPRMC,080236.00,A,3733.74070,N,12656.15668,E,1.198,,230523,,,A*71\r\n"
  ],
  [
    44.09874248504639,
    "$GPVTG,,T,,M,1.198,N,2.218,K,A*2B\r\n"
  ],
  [
    44.099313259124756,
    "$GPGGA,080236.00,3733.74070,N,12656.15668,E,1,05,2.50,36.4,M,18.4,M,,*67\r\n"
  ],
  [
    44.09972834587097,
    "$GPGSA,A,3,11,06,20,09,04,,,,,,,,4.01,2.50,3.13*08\r\n"
  ],
  [
    44.10023021697998,
    "$GPGSV,4,1,15,04,12,039,09,05,31,253,13,06,56,075,18,07,05,103,*73\r\n"
  ],
  [
    44.10069179534912,
    "$GPGSV,4,2,15,09,38,058,10,11,62,331,20,12,19,263,08,13,04,191,*79\r\n"
  ],
  [
    44.101120710372925,
    "$GPGSV,4,3,15,17,16,155,,19,37,159,12,20,53,273,17,25,11,296,*76\r\n"
  ],
  [
    44.10149931907654,
    "$GPGSV,4,4,15,29,03,323,,30,01,133,,50,46,180,*4A\r\n"
  ],
  [
    44.10183835029602,
    "$GPGLL,3733.74070,N,12656.15668,E,080236.00,A,A*6C\r\n"
  ],
  [
    45.08571934700012,
    "$GPRMC,080237.00,A,3733.73989,N,12656.15630,E,1.444,,230523,,,A*71\r\n"
  ],
  [
    45.08601236343384,
    "$GPVTG,,T,,M,1.444,N,2.674,K,A*21\r\n"
  ],
  [
    45.086495876312256,
    "$GPGGA,080237.00,3733.73989,N,12656.15630,E,1,04,2.57,36.2,M,18.4,M,,*63\r\n"
  ],
  [
    45.08698558807373,
    "$GPGSA,A,3,11,06,20,09,,,,,,,,,6.18,2.57,5.62*01\r\n"
  ],
  [
    45.087440490722656,
    "$GPGSV,4,1,15,04,12,039,,05,31,253,15,06,56,075,13,07,05,103,*77\r\n"
  ],
  [
    45.08786225318909,
    "$GPGSV,4,2,15,09,38,058,10,11,62,331,19,12,19,263,08,13,04,191,*73\r\n"
  ],
  [
    45.08827018737793,
    "$GPGSV,4,3,15,17,16,155,,19,37,159,12,20,53,273,15,25,11,296,*74\r\n"
  ],
  [
    45.088598012924194,
    "$GPGSV,4,4,15,29,03,323,,30,01,133,,50,46,180,*4A\r\n"
  ],
  [
    45.08892226219177,
    "$GPGLL,3733.73989,N,12656.15630,E,080237.00,A,A*68\r\n"
  ],
  [
    46.09582734107971,
    "$GPRMC,080238.00,A,3733.73926,N,12656.15532,E,1.477,,230523,,,A*7A\r\n"
  ],
  [
    46.095942735672,
    "$GPVTG,,T,,M,1.477,N,2.736,K,A*26\r\n"
  ],
  [
    46.09615397453308,
    "$GPGGA,080238.00,3733.73926,N,12656.15532,E,1,05,2.00,35.1,M,18.4,M,,*6B\r\n"
  ],
  [
    46.096317768096924,
    "$GPGSA,A,3,11,06,20,09,12,,,,,,,,2.97,2.00,2.19*08\r\n"
  ],
  [
    46.09653997421265,
    "$GPGSV,4,1,15,04,12,039,,05,31,253,15,06,56,075,13,07,05,103,*77\r\n"
  ],
  [
    46.096739530563354,
    "$GPGSV,4,2,15,09,38,058,12,11,62,331,16,12,19,263,09,13,04,191,*7F\r\n"
  ],
  [
    46.09692668914795,
    "$GPGSV,4,3,15,17,16,155,,19,37,159,05,20,53,273,12,25,11,296,*75\r\n"
  ],
  [
    46.09707188606262,
    "$GPGSV,4,4,15,29,03,323,,30,01,133,,50,46,180,*4A\r\n"
  ],
  [
    46.0972204208374,
    "$GPGLL,3733.73926,N,12656.15532,E,080238.00,A,A*63\r\n"
  ],
  [
    47.095099449157715,
    "$GPRMC,080239.00,A,3733.73918,N,12656.15429,E,1.393,,230523,,,A*70\r\n"
  ],
  [
    47.09544229507446,
    "$GPVTG,,T,,M,1.393,N,2.579,K,A*22\r\n"
  ],
  [
    47.09600305557251,
    "$GPGGA,080239.00,3733.73918,N,12656.15429,E,1,06,1.91,34.3,M,18.4,M,,*67\r\n"
  ],
  [
    47.09638214111328,
    "$GPGSA,A,3,11,06,20,09,05,12,,,,,,,2.86,1.91,2.13*0C\r\n"
  ],
  [
    47.09681224822998,
    "$GPGSV,4,1,15,04,12,039,,05,31,253,13,06,56,075,11,07,05,103,*73\r\n"
  ],
  [
    47.09725475311279,
    "$GPGSV,4,2,15,09,38,058,12,11,62,331,10,12,19,263,09,13,04,191,*79\r\n"
  ],
  [
    47.09769153594971,
    "$GPGSV,4,3,15,17,16,155,,19,37,159,05,20,53,273,10,25,11,296,*77\r\n"
  ],
  [
    47.09802579879761,
    "$GPGSV,4,4,15,29,03,323,,30,01,133,,50,46,180,*4A\r\n"
  ],
  [
    47.09837317466736,
    "$GPGLL,3733.73918,N,12656.15429,E,080239.00,A,A*64\r\n"
  ],
  [
    48.088764905929565,
    "$GPRMC,080240.00,A,3733.73846,N,12656.15336,E,1.821,,230523,,,A*7F\r\n"
  ],
  [
    48.08903694152832,
    "$GPVTG,,T,,M,1.821,N,3.373,K,A*2D\r\n"
  ],
  [
    48.08953094482422,
    "$GPGGA,080240.00,3733.73846,N,12656.15336,E,1,03,8.78,35.2,M,18.4,M,,*61\r\n"
  ],
  [
    48.08986306190491,
    "$GPGSA,A,2,09,05,12,,,,,,,,,,8.84,8.78,1.00*0E\r\n"
  ],
  [
    48.09029006958008,
    "$GPGSV,4,1,15,04,12,039,,05,31,253,11,06,56,075,09,07,05,103,*78\r\n"
  ],
  [
    48.090736627578735,
    "$GPGSV,4,2,15,09,38,058,12,11,62,331,08,12,19,263,09,13,04,191,*70\r\n"
  ],
  [
    48.091166496276855,
    "$GPGSV,4,3,15,17,16,155,,19,37,159,05,20,53,273,09,25,11,296,*7F\r\n"
  ],
  [
    48.09150791168213,
    "$GPGSV,4,4,15,29,03,323,,30,01,133,,50,46,180,*4A\r\n"
  ],
  [
    48.091848850250244,
    "$GPGLL,3733.73846,N,12656.15336,E,080240.00,A,A*69\r\n"
  ],
  [
    49.07726693153381,
    "$GPRMC,080241.00,V,,,,,,,230523,,,N*77\r\n"
  ],
  [
    49.07749962806702,
    "$GPVTG,,,,,,,,,N*30\r\n"
  ],
  [
    49.077824115753174,
    "$GPGGA,080241.00,,,,,0,03,38.37,,,,,,*65\r\n"
  ],
  [
    49.078219413757324,
    "$GPGSA,A,1,20,09,12,,,,,,,,,,38.38,38.37,1.00*06\r\n"
  ],
  [
    49.07872819900513,
    "$GPGSV,4,1,15,04,12,039,,05,31,253,,06,56,075,08,07,05,103,*79\r\n"
  ],
  [
    49.07917594909668,
    "$GPGSV,4,2,15,09,38,058,12,11,62,331,08,12,19,263,09,13,04,191,*70\r\n"
  ],
  [
    49.0796160697937,
    "$GPGSV,4,3,15,17,16,155,,19,37,159,05,20,53,273,10,25,11,296,*77\r\n"
  ],
  [
    49.07995057106018,
    "$GPGSV,4,4,15,29,03,323,,30,01,133,,50,46,180,*4A\r\n"
  ],
  [
    49.08014440536499,
    "$GPGLL,,,,,080241.00,V,N*45\r\n"
  ],
  [
    50.08396124839783,
    "$GPRMC,080242.00,V,,,,,,,230523,,,N*74\r\n"
  ],
  [
    50.08413910865784,
    "$GPVTG,,,,,,,,,N*30\r\n"
  ],
  [
    50.08444929122925,
    "$GPGGA,080242.00,,,,,0,03,38.22,,,,,,*62\r\n"
  ],
  [
    50.08479118347168,
    "$GPGSA,A,1,20,09,12,,,,,,,,,,38.23,38.22,1.00*08\r\n"
  ],
  [
    50.08520436286926,
    "$GPGSV,4,1,15,04,12,039,,05,31,253,,06,56,075,08,07,05,103,*79\r\n"
  ],
  [
    50.08568358421326,
    "$GPGSV,4,2,15,09,38,058,12,11,62,331,08,12,19,263,09,13,04,191,*70\r\n"
  ],
  [
    50.086137533187866,
    "$GPGSV,4,3,15,17,16,155,,19,37,159,05,20,53,273,10,25,11,296,*77\r\n"
  ],
  [
    50.08649230003357,
    "$GPGSV,4,4,15,29,03,323,,30,01,133,,50,46,180,*4A\r\n"
  ],
  [
    50.08678603172302,
    "$GPGLL,,,,,080242.00,V,N*46\r\n"
  ],
  [
    51.07845664024353,
    "$GPRMC,080243.00,V,,,,,,,230523,,,N*75\r\n"
  ],
  [
    51.07865333557129,
    "$GPVTG,,,,,,,,,N*30\r\n"
  ],
  [
    51.07898187637329,
    "$GPGGA,080243.00,,,,,0,00,99.99,,,,,,*6B\r\n"
  ],
  [
    51.07932090759277,
    "$GPGSA,A,1,,,,,,,,,,,,,99.99,99.99,99.99*30\r\n"
  ],
  [
    51.079739570617676,
    "$GPGSV,4,1,15,04,12,039,,05,31,253,,06,56,075,,07,05,103,*71\r\n"
  ],
  [
    51.08016061782837,
    "$GPGSV,4,2,15,09,38,058,12,11,62,331,08,12,19,263,09,13,04,191,*70\r\n"
  ],
  [
    51.08056354522705,
    "$GPGSV,4,3,15,17,16,155,,19,37,159,05,20,53,273,,25,11,296,*76\r\n"
  ],
  [
    51.08088207244873,
    "$GPGSV,4,4,15,29,03,323,,30,01,133,,50,46,180,*4A\r\n"
  ],
  [
    51.081072092056274,
    "$GPGLL,,,,,080243.00,V,N*47\r\n"
  ],
  [
    52.07696270942688,
    "$GPRMC,080244.00,A,3733.73748,N,12656.14950,E,2.099,,230523,,,A*79\r\n"
  ],
  [
    52.0772910118103,
    "$GPVTG,,T,,M,2.099,N,3.887,K,A*25\r\n"
  ],
  [
    52.0778603553772,
    "$GPGGA,080244.00,3733.73748,N,12656.14950,E,1,03,4.73,34.3,M,18.4,M,,*68\r\n"
  ],
  [
    52.07819223403931,
    "$GPGSA,A,2,11,09,12,,,,,,,,,,4.84,4.73,1.00*00\r\n"
  ],
  [
    52.078606843948364,
    "$GPGSV,4,1,15,04,12,039,,05,31,253,,06,56,075,,07,05,103,*71\r\n"
  ],
  [
    52.079068183898926,
    "$GPGSV,4,2,15,09,38,058,07,11,62,331,08,12,19,263,07,13,04,191,*7A\r\n"
  ],
  [
    52.07949614524841,
    "$GPGSV,4,3,15,17,16,155,,19,37,159,05,20,53,273,,25,11,296,*76\r\n"
  ],
  [
    52.07982897758484,
    "$GPGSV,4,4,15,29,03,323,,30,01,133,,50,46,180,*4A\r\n"
  ],
  [
    52.08016633987427,
    "$GPGLL,3733.73748,N,12656.14950,E,080244.00,A,A*67\r\n"
  ],
  [
    53.09042525291443,
    "$GPRMC,080245.00,A,3733.73880,N,12656.14761,E,2.312,,230523,,,A*7F\r\n"
  ],
  [
    53.09068989753723,
    "$GPVTG,,T,,M,2.312,N,4.282,K,A*2D\r\n"
  ],
  [
    53.09115219116211,
    "$GPGGA,080245.00,3733.73880,N,12656.14761,E,1,03,4.73,34.1,M,18.4,M,,*6C\r\n"
  ],
  [
    53.09150767326355,
    "$GPGSA,A,2,11,09,12,,,,,,,,,,4.84,4.73,1.00*00\r\n"
  ],
  [
    53.09189462661743,
    "$GPGSV,4,1,15,04,12,039,,05,31,253,,06,56,075,,07,05,103,*71\r\n"
  ],
  [
    53.09231638908386,
    "$GPGSV,4,2,15,09,38,058,07,11,62,331,08,12,19,263,07,13,04,191,*7A\r\n"
  ],
  [
    53.09271955490112,
    "$GPGSV,4,3,15,17,16,155,,19,37,159,,20,53,273,11,25,11,296,*73\r\n"
  ],
  [
    53.09304213523865,
    "$GPGSV,4,4,15,29,03,323,,30,01,133,,50,46,180,*4A\r\n"
  ],
  [
    53.09344220161438,
    "$GPGLL,3733.73880,N,12656.14761,E,080245.00,A,A*61\r\n"
  ],
  [
    54.089308738708496,
    "$GPRMC,080246.00,A,3733.73715,N,12656.14855,E,1.501,,230523,,,A*70\r\n"
  ],
  [
    54.08961081504822,
    "$GPVTG,,T,,M,1.501,N,2.781,K,A*2A\r\n"
  ],
  [
    54.09013843536377,
    "$GPGGA,080246.00,3733.73715,N,12656.14855,E,1,02,2.53,33.9,M,18.4,M,,*6E\r\n"
  ],
  [
    54.09050703048706,
    "$GPGSA,A,2,11,12,,,,,,,,,,,2.72,2.53,1.00*02\r\n"
  ],
  [
    54.09096908569336,
    "$GPGSV,4,1,15,04,12,039,,05,31,253,,06,56,075,,07,05,103,*71\r\n"
  ],
  [
    54.09144592285156,
    "$GPGSV,4,2,15,09,38,058,07,11,62,331,08,12,19,263,07,13,04,191,*7A\r\n"
  ],
  [
    54.09184432029724,
    "$GPGSV,4,3,15,17,16,155,,19,37,159,,20,53,273,19,25,11,296,*7B\r\n"
  ],
  [
    54.09216237068176,
    "$GPGSV,4,4,15,29,03,323,,30,01,133,,50,46,180,*4A\r\n"
  ],
  [
    54.092493772506714,
    "$GPGLL,3733.73715,N,12656.14855,E,080246.00,A,A*69\r\n"
  ],
  [
    55.10998296737671,
    "$GPRMC,080247.00,A,3733.73773,N,12656.14922,E,0.594,,230523,,,A*7D\r\n"
  ],
  [
    55.110310077667236,
    "$GPVTG,,T,,M,0.594,N,1.101,K,A*2A\r\n"
  ],
  [
    55.11093854904175,
    "$GPGGA,080247.00,3733.73773,N,12656.14922,E,1,03,3.77,33.8,M,18.4,M,,*69\r\n"
  ],
  [
    55.111337184906006,
    "$GPGSA,A,3,11,20,12,,,,,,,,,,6.29,3.77,5.04*0C\r\n"
  ],
  [
    55.11175560951233,
    "$GPGSV,4,1,15,04,12,039,,05,31,253,,06,56,075,,07,05,103,*71\r\n"
  ],
  [
    55.11220955848694,
    "$GPGSV,4,2,15,09,38,058,07,11,62,331,08,12,19,263,07,13,04,191,*7A\r\n"
  ],
  [
    55.11264228820801,
    "$GPGSV,4,3,15,17,16,155,,19,37,159,,20,53,273,20,25,11,296,*71\r\n"
  ],
  [
    55.112987995147705,
    "$GPGSV,4,4,15,29,03,323,,30,01,133,,50,46,180,*4A\r\n"
  ],
  [
    55.11334848403931,
    "$GPGLL,3733.73773,N,12656.14922,E,080247.00,A,A*69\r\n"
  ],
  [
    56.088661909103394,
    "$GPRMC,080248.00,A,3733.73741,N,12656.15079,E,0.566,,230523,,,A*78\r\n"
  ],
  [
    56.08899235725403,
    "$GPVTG,,T,,M,0.566,N,1.048,K,A*2B\r\n"
  ],
  [
    56.08952331542969,
    "$GPGGA,080248.00,3733.73741,N,12656.15079,E,1,02,7.47,33.7,M,18.4,M,,*68\r\n"
  ],
  [
    56.08986210823059,
    "$GPGSA,A,2,20,12,,,,,,,,,,,7.53,7.47,1.00*06\r\n"
  ],
  [
    56.09028911590576,
    "$GPGSV,4,1,15,04,12,039,,05,31,253,,06,56,075,07,07,05,103,*76\r\n"
  ],
  [
    56.09074950218201,
    "$GPGSV,4,2,15,09,38,058,07,11,62,331,05,12,19,263,07,13,04,191,*77\r\n"
  ],
  [
    56.09117794036865,
    "$GPGSV,4,3,15,17,16,155,,19,37,159,,20,53,273,17,25,11,296,*75\r\n"
  ],
  [
    56.091546058654785,
    "$GPGSV,4,4,15,29,03,323,,30,01,133,,50,46,180,*4A\r\n"
  ],
  [
    56.09190034866333,
    "$GPGLL,3733.73741,N,12656.15079,E,080248.00,A,A*61\r\n"
  ],
  [
    57.076175928115845,
    "$GPRMC,080249.00,V,,,,,,,230523,,,N*7F\r\n"
  ],
  [
    57.0763943195343,
    "$GPVTG,,,,,,,,,N*30\r\n"
  ],
  [
    57.076735734939575,
    "$GPGGA,080249.00,,,,,0,00,99.99,,,,,,*61\r\n"
  ],
  [
    57.077064037323,
    "$GPGSA,A,1,,,,,,,,,,,,,99.99,99.99,99.99*30\r\n"
  ],
  [
    57.077502965927124,
    "$GPGSV,4,1,15,04,12,039,,05,31,253,,06,56,075,17,07,05,103,*77\r\n"
  ],
  [
    57.07791447639465,
    "$GPGSV,4,2,15,09,38,058,07,11,62,331,13,12,19,263,,13,04,191,*77\r\n"
  ],
  [
    57.07831168174744,
    "$GPGSV,4,3,15,17,16,155,,19,37,159,,20,53,273,11,25,11,296,*73\r\n"
  ],
  [
    57.07864260673523,
    "$GPGSV,4,4,15,29,03,323,,30,01,133,,50,46,180,*4A\r\n"
  ],
  [
    57.07882642745972,
    "$GPGLL,,,,,080249.00,V,N*4D\r\n"
  ],
  [
    58.08397936820984,
    "$GPRMC,080250.00,A,3733.73593,N,12656.15170,E,1.233,,230523,,,A*72\r\n"
  ],
  [
    58.08429026603699,
    "$GPVTG,,T,,M,1.233,N,2.284,K,A*2C\r\n"
  ],
  [
    58.08498454093933,
    "$GPGGA,080250.00,3733.73593,N,12656.15170,E,1,02,3.20,33.7,M,18.4,M,,*61\r\n"
  ],
  [
    58.08530855178833,
    "$GPGSA,A,2,11,20,,,,,,,,,,,3.35,3.20,1.00*04\r\n"
  ],
  [
    58.08575963973999,
    "$GPGSV,4,1,15,04,12,039,,05,31,253,,06,56,075,19,07,05,103,*79\r\n"
  ],
  [
    58.086195945739746,
    "$GPGSV,4,2,15,09,38,058,07,11,62,331,17,12,19,263,,13,04,191,*73\r\n"
  ],
  [
    58.086936235427856,
    "$GPGSV,4,3,15,17,16,155,,19,37,159,03,20,54,273,10,25,11,296,*76\r\n"
  ],
  [
    58.08764672279358,
    "$GPGSV,4,4,15,29,03,323,,30,01,133,,50,46,180,*4A\r\n"
  ],
  [
    58.08809185028076,
    "$GPGLL,3733.73593,N,12656.15170,E,080250.00,A,A*6D\r\n"
  ],
  [
    59.09051585197449,
    "$GPRMC,080251.00,A,3733.73849,N,12656.15075,E,0.363,,230523,,,A*78\r\n"
  ],
  [
    59.090922594070435,
    "$GPVTG,,T,,M,0.363,N,0.672,K,A*26\r\n"
  ],
  [
    59.09154224395752,
    "$GPGGA,080251.00,3733.73849,N,12656.15075,E,1,02,3.20,33.8,M,18.4,M,,*61\r\n"
  ],
  [
    59.09197211265564,
    "$GPGSA,A,2,11,20,,,,,,,,,,,3.35,3.20,1.00*04\r\n"
  ],
  [
    59.09246325492859,
    "$GPGSV,4,1,15,04,12,039,,05,31,253,,06,56,075,17,07,05,103,*77\r\n"
  ],
  [
    59.092957973480225,
    "$GPGSV,4,2,15,09,38,058,07,11,62,331,16,12,19,263,,13,04,191,*72\r\n"
  ],
  [
    59.09344291687012,
    "$GPGSV,4,3,15,17,16,155,,19,37,159,07,20,54,273,10,25,11,296,*72\r\n"
  ],
  [
    59.09382891654968,
    "$GPGSV,4,4,15,29,03,323,,30,01,133,,50,46,180,*4A\r\n"
  ],
  [
    59.094226598739624,
    "$GPGLL,3733.73849,N,12656.15075,E,080251.00,A,A*62\r\n"
  ],
  [
    60.09255051612854,
    "$GPRMC,080252.00,A,3733.74162,N,12656.15050,E,1.464,,230523,,,A*7A\r\n"
  ],
  [
    60.09295845031738,
    "$GPVTG,,T,,M,1.464,N,2.711,K,A*21\r\n"
  ],
  [
    60.09358024597168,
    "$GPGGA,080252.00,3733.74162,N,12656.15050,E,1,02,3.20,33.8,M,18.4,M,,*62\r\n"
  ],
  [
    60.0940146446228,
    "$GPGSA,A,2,11,20,,,,,,,,,,,3.35,3.20,1.00*04\r\n"
  ],
  [
    60.09451961517334,
    "$GPGSV,4,1,15,04,12,039,,05,31,253,14,06,56,075,10,07,05,103,*75\r\n"
  ],
  [
    60.0950026512146,
    "$GPGSV,4,2,15,09,38,058,,11,62,331,10,12,19,263,,13,04,191,*73\r\n"
  ],
  [
    60.09551215171814,
    "$GPGSV,4,3,15,17,16,155,,19,37,159,12,20,54,273,11,25,11,296,*77\r\n"
  ],
  [
    60.09591007232666,
    "$GPGSV,4,4,15,29,03,323,,30,01,133,,50,46,180,*4A\r\n"
  ],
  [
    60.09631156921387,
    "$GPGLL,3733.74162,N,12656.15050,E,080252.00,A,A*61\r\n"
  ],
  [
    61.07801532745361,
    "$GPRMC,080253.00,V,,,,,,,230523,,,N*74\r\n"
  ],
  [
    61.07830452919006,
    "$GPVTG,,,,,,,,,N*30\r\n"
  ],
  [
    61.07888126373291,
    "$GPGGA,080253.00,,,,,0,00,99.99,,,,,,*6A\r\n"
  ],
  [
    61.079336404800415,
    "$GPGSA,A,1,,,,,,,,,,,,,99.99,99.99,99.99*30\r\n"
  ],
  [
    61.0798716545105,
    "$GPGSV,4,1,15,04,12,039,,05,31,253,14,06,56,075,08,07,05,103,*7C\r\n"
  ],
  [
    61.0803439617157,
    "$GPGSV,4,2,15,09,38,058,,11,62,331,08,12,19,263,,13,04,191,*7A\r\n"
  ],
  [
    61.080825328826904,
    "$GPGSV,4,3,15,17,16,155,,19,37,159,12,20,54,273,10,25,11,296,*76\r\n"
  ],
  [
    61.08121728897095,
    "$GPGSV,4,4,15,29,03,323,,30,01,133,,50,46,180,*4A\r\n"
  ],
  [
    61.081480264663696,
    "$GPGLL,,,,,080253.00,V,N*46\r\n"
  ],
  [
    62.07500147819519,
    "$GPRMC,080254.00,V,,,,,,,230523,,,N*73\r\n"
  ],
  [
    62.07518982887268,
    "$GPVTG,,,,,,,,,N*30\r\n"
  ],
  [
    62.07553315162659,
    "$GPGGA,080254.00,,,,,0,00,99.99,,,,,,*6D\r\n"
  ],
  [
    62.075918436050415,
    "$GPGSA,A,1,,,,,,,,,,,,,99.99,99.99,99.99*30\r\n"
  ],
  [
    62.076427698135376,
    "$GPGSV,4,1,15,04,12,039,,05,31,253,15,06,56,075,08,07,05,103,*7D\r\n"
  ],
  [
    62.07684826850891,
    "$GPGSV,4,2,15,09,38,058,,11,62,331,08,12,19,263,,13,04,191,*7A\r\n"
  ],
  [
    62.07726740837097,
    "$GPGSV,4,3,15,17,16,155,,19,37,159,10,20,54,273,14,25,11,296,*70\r\n"
  ],
  [
    62.077603340148926,
    "$GPGSV,4,4,15,29,03,323,,30,01,133,,50,46,180,*4A\r\n"
  ],
  [
    62.07780337333679,
    "$GPGLL,,,,,080254.00,V,N*41\r\n"
  ],
  [
    63.0861976146698,
    "$GPRMC,080255.00,A,3733.74393,N,12656.15049,E,2.027,,230523,,,A*79\r\n"
  ],
  [
    63.08651328086853,
    "$GPVTG,,T,,M,2.027,N,3.754,K,A*21\r\n"
  ],
  [
    63.08699440956116,
    "$GPGGA,080255.00,3733.74393,N,12656.15049,E,1,02,3.61,33.8,M,18.4,M,,*64\r\n"
  ],
  [
    63.08731007575989,
    "$GPGSA,A,2,20,19,,,,,,,,,,,3.75,3.61,1.00*0D\r\n"
  ],
  [
    63.08774256706238,
    "$GPGSV,4,1,15,04,12,039,,05,31,253,13,06,56,075,08,07,05,103,*7B\r\n"
  ],
  [
    63.08816599845886,
    "$GPGSV,4,2,15,09,38,058,,11,62,331,08,12,19,263,06,13,04,191,*7C\r\n"
  ],
  [
    63.08861780166626,
    "$GPGSV,4,3,15,17,16,155,,19,37,159,10,20,54,273,19,25,11,296,*7D\r\n"
  ],
  [
    63.08894896507263,
    "$GPGSV,4,4,15,29,03,323,,30,01,133,,50,46,180,*4A\r\n"
  ],
  [
    63.08928370475769,
    "$GPGLL,3733.74393,N,12656.15049,E,080255.00,A,A*62\r\n"
  ],
  [
    64.10064959526062,
    "$GPRMC,080256.00,A,3733.74638,N,12656.15103,E,2.753,,230523,,,A*75\r\n"
  ],
  [
    64.10094594955444,
    "$GPVTG,,T,,M,2.753,N,5.098,K,A*24\r\n"
  ],
  [
    64.10152697563171,
    "$GPGGA,080256.00,3733.74638,N,12656.15103,E,1,04,2.12,34.1,M,18.4,M,,*61\r\n"
  ],
  [
    64.10191631317139,
    "$GPGSA,A,3,11,06,20,05,,,,,,,,,4.48,2.12,3.94*04\r\n"
  ],
  [
    64.10241413116455,
    "$GPGSV,4,1,15,04,12,039,,05,31,253,15,06,56,075,10,07,05,103,*74\r\n"
  ],
  [
    64.10284185409546,
    "$GPGSV,4,2,15,09,38,058,,11,62,331,08,12,19,263,08,13,04,191,*72\r\n"
  ],
  [
    64.10324883460999,
    "$GPGSV,4,3,15,17,16,155,,19,37,159,06,20,54,273,19,25,11,296,*7A\r\n"
  ],
  [
    64.10357141494751,
    "$GPGSV,4,4,15,29,03,323,,30,01,133,,50,46,180,*4A\r\n"
  ],
  [
    64.10389351844788,
    "$GPGLL,3733.74638,N,12656.15103,E,080256.00,A,A*6A\r\n"
  ],
  [
    65.09837794303894,
    "$GPRMC,080257.00,A,3733.74749,N,12656.15250,E,2.886,,230523,,,A*71\r\n"
  ],
  [
    65.09867715835571,
    "$GPVTG,,T,,M,2.886,N,5.346,K,A*23\r\n"
  ],
  [
    65.09921145439148,
    "$GPGGA,080257.00,3733.74749,N,12656.15250,E,1,04,2.12,34.4,M,18.4,M,,*67\r\n"
  ],
  [
    65.09959745407104,
    "$GPGSA,A,3,11,06,20,05,,,,,,,,,4.48,2.12,3.94*04\r\n"
  ],
  [
    65.10006594657898,
    "$GPGSV,4,1,15,04,12,039,,05,31,253,15,06,56,075,12,07,05,103,*76\r\n"
  ],
  [
    65.10051345825195,
    "$GPGSV,4,2,15,09,38,058,,11,62,331,08,12,19,263,12,13,04,191,*79\r\n"
  ],
  [
    65.1009247303009,
    "$GPGSV,4,3,15,17,16,155,,19,37,159,06,20,54,273,19,25,11,296,*7A\r\n"
  ],
  [
    65.1012544631958,
    "$GPGSV,4,4,15,29,03,323,,30,01,133,,50,46,180,*4A\r\n"
  ],
  [
    65.1015875339508,
    "$GPGLL,3733.74749,N,12656.15250,E,080257.00,A,A*69\r\n"
  ],
  [
    66.09729051589966,
    "$GPRMC,080258.00,A,3733.75301,N,12656.15334,E,4.493,334.25,230523,,,A*67\r\n"
  ],
  [
    66.09768199920654,
    "$GPVTG,334.25,T,,M,4.493,N,8.321,K,A*3C\r\n"
  ],
  [
    66.0982563495636,
    "$GPGGA,080258.00,3733.75301,N,12656.15334,E,1,04,2.12,34.7,M,18.4,M,,*61\r\n"
  ],
  [
    66.09861207008362,
